[
  {
    "id": "manual-001",
    "name": "等々力渓谷",
    "description": "都内唯一の渓谷。深い緑と渓流が心を癒す自然スポット。",
    "category": "meditation",
    "latitude": 35.6063,
    "longitude": 139.6517,
    "source": "manual",
    "source_url": null,
    "created_at": "2026-01-15T09:00:00Z",
    "updated_at": "2026-01-15T09:00:00Z",
    "tags": ["few_people", "shade"]
  },
  {
    "id": "manual-002",
    "name": "高尾山",
    "description": "年間300万人が訪れる東京の名山。複数の登山ルートがあり初心者でも安心。",
    "category": "walking",
    "latitude": 35.6256,
    "longitude": 139.2436,
    "source": "manual",
    "source_url": null,
    "created_at": "2026-01-20T10:00:00Z",
    "updated_at": "2026-01-20T10:00:00Z",
    "tags": ["toilet", "parking"]
  },
  {
    "id": "manual-003",
    "name": "国営昭和記念公園",
    "description": "広大な敷地に季節の花々が咲き誇る国営公園。バーベキュー場や運動施設も完備。",
    "category": "sports",
    "latitude": 35.7079,
    "longitude": 139.4083,
    "source": "manual",
    "source_url": null,
    "created_at": "2026-02-01T09:00:00Z",
    "updated_at": "2026-02-01T09:00:00Z",
    "tags": ["bbq_ok", "parking", "toilet", "water"]
  },
  {
    "id": "manual-004",
    "name": "城ヶ島",
    "description": "神奈川県三浦市にある関東最大の自然島。荒磯の絶景と新鮮な海の幸が楽しめる。",
    "category": "hidden_gem",
    "latitude": 35.1369,
    "longitude": 139.6189,
    "source": "manual",
    "source_url": null,
    "created_at": "2026-02-10T11:00:00Z",
    "updated_at": "2026-02-10T11:00:00Z",
    "tags": ["few_people"]
  },
  {
    "id": "manual-005",
    "name": "丹沢大山",
    "description": "神奈川を代表する霊峰。山頂からは相模湾や富士山が望める絶景スポット。",
    "category": "waterside",
    "latitude": 35.4408,
    "longitude": 139.2317,
    "source": "manual",
    "source_url": null,
    "created_at": "2026-02-15T08:00:00Z",
    "updated_at": "2026-02-15T08:00:00Z",
    "tags": ["few_people", "shade"]
  },
  {
    "id": "manual-006",
    "name": "払沢の滝",
    "description": "東京都内唯一の日本の滝百選。落差26mの美しい滝は夏でも涼しい。",
    "category": "waterfall",
    "latitude": 35.7558,
    "longitude": 139.1442,
    "source": "manual",
    "source_url": null,
    "created_at": "2026-03-01T10:00:00Z",
    "updated_at": "2026-03-01T10:00:00Z",
    "tags": ["parking", "toilet"]
  },
  {
    "id": "manual-007",
    "name": "城南島海浜公園",
    "description": "羽田空港に隣接する海浜公園。BBQ施設があり、飛行機を眺めながら楽しめる。",
    "category": "bbq",
    "latitude": 35.5867,
    "longitude": 139.7689,
    "source": "manual",
    "source_url": null,
    "created_at": "2026-03-10T09:00:00Z",
    "updated_at": "2026-03-10T09:00:00Z",
    "tags": ["bbq_ok", "parking", "toilet", "water"]
  },
  {
    "id": "manual-008",
    "name": "本栖湖周辺の森",
    "description": "富士五湖のひとつ本栖湖。透明度が高く、千円札の図柄にも使われた絶景スポット。",
    "category": "meditation",
    "latitude": 35.4708,
    "longitude": 138.6206,
    "source": "manual",
    "source_url": null,
    "created_at": "2026-03-15T10:00:00Z",
    "updated_at": "2026-03-15T10:00:00Z",
    "tags": ["few_people", "shade"]
  },
  {
    "id": "manual-009",
    "name": "鶴見緑地",
    "description": "横浜市鶴見区にある広大な都市公園。自然豊かな環境でのんびり過ごせる穴場スポット。",
    "category": "hidden_gem",
    "latitude": 35.5121,
    "longitude": 139.6783,
    "source": "manual",
    "source_url": null,
    "created_at": "2026-04-01T09:00:00Z",
    "updated_at": "2026-04-01T09:00:00Z",
    "tags": ["few_people", "bench"]
  },
  {
    "id": "manual-010",
    "name": "多摩川河川敷（二子玉川）",
    "description": "二子玉川駅近くの多摩川河川敷。広々とした芝生でBBQや球技が楽しめる都内屈指の河川公園。",
    "category": "sports",
    "latitude": 35.6116,
    "longitude": 139.6261,
    "source": "manual",
    "source_url": null,
    "created_at": "2026-04-10T10:00:00Z",
    "updated_at": "2026-04-10T10:00:00Z",
    "tags": ["bbq_ok", "parking"]
  }
]
