[
  {
    "id": "overpass-0001",
    "name": "荒幡富士",
    "description": null,
    "category": "walking",
    "latitude": 35.7739749,
    "longitude": 139.4459221,
    "source": "manual",
    "source_url": "https://www.openstreetmap.org/node/296856918",
    "created_at": "2026-05-26T01:04:19.965Z",
    "updated_at": "2026-05-26T01:04:19.965Z"
  },
  {
    "id": "overpass-0002",
    "name": "スカイガーデン",
    "description": null,
    "category": "meditation",
    "latitude": 35.4547727,
    "longitude": 139.6313256,
    "source": "manual",
    "source_url": "https://www.openstreetmap.org/node/304566283",
    "created_at": "2026-05-26T01:04:19.967Z",
    "updated_at": "2026-05-26T01:04:19.967Z"
  },
  {
    "id": "overpass-0003",
    "name": "ガリバー山",
    "description": null,
    "category": "walking",
    "latitude": 35.6161145,
    "longitude": 139.4194902,
    "source": "manual",
    "source_url": "https://www.openstreetmap.org/node/312522057",
    "created_at": "2026-05-26T01:04:19.967Z",
    "updated_at": "2026-05-26T01:04:19.967Z"
  },
  {
    "id": "overpass-0004",
    "name": "浅間山",
    "description": "ja:浅間山 (東京都)",
    "category": "walking",
    "latitude": 35.681265,
    "longitude": 139.5024655,
    "source": "manual",
    "source_url": "https://www.openstreetmap.org/node/315737039",
    "created_at": "2026-05-26T01:04:19.967Z",
    "updated_at": "2026-05-26T01:04:19.967Z"
  },
  {
    "id": "overpass-0005",
    "name": "天覧山",
    "description": "ja:天覧山",
    "category": "walking",
    "latitude": 35.8620377,
    "longitude": 139.308305,
    "source": "manual",
    "source_url": "https://www.openstreetmap.org/node/323812061",
    "created_at": "2026-05-26T01:04:19.967Z",
    "updated_at": "2026-05-26T01:04:19.967Z"
  },
  {
    "id": "overpass-0006",
    "name": "多峰主山",
    "description": "ja:多峰主山",
    "category": "walking",
    "latitude": 35.8681228,
    "longitude": 139.2979421,
    "source": "manual",
    "source_url": "https://www.openstreetmap.org/node/338877338",
    "created_at": "2026-05-26T01:04:19.967Z",
    "updated_at": "2026-05-26T01:04:19.967Z"
  },
  {
    "id": "overpass-0007",
    "name": "荒神山",
    "description": null,
    "category": "walking",
    "latitude": 35.3891647,
    "longitude": 139.6061384,
    "source": "manual",
    "source_url": "https://www.openstreetmap.org/node/347520642",
    "created_at": "2026-05-26T01:04:19.967Z",
    "updated_at": "2026-05-26T01:04:19.967Z"
  },
  {
    "id": "overpass-0008",
    "name": "塔ノ岳",
    "description": "ja:塔ノ岳",
    "category": "walking",
    "latitude": 35.4540704,
    "longitude": 139.163317,
    "source": "manual",
    "source_url": "https://www.openstreetmap.org/node/357416162",
    "created_at": "2026-05-26T01:04:19.967Z",
    "updated_at": "2026-05-26T01:04:19.967Z"
  },
  {
    "id": "overpass-0009",
    "name": "三ノ塔",
    "description": "ja:三ノ塔",
    "category": "walking",
    "latitude": 35.4365712,
    "longitude": 139.1915566,
    "source": "manual",
    "source_url": "https://www.openstreetmap.org/node/357416170",
    "created_at": "2026-05-26T01:04:19.967Z",
    "updated_at": "2026-05-26T01:04:19.967Z"
  },
  {
    "id": "overpass-0010",
    "name": "二ノ塔",
    "description": null,
    "category": "walking",
    "latitude": 35.4340378,
    "longitude": 139.1955383,
    "source": "manual",
    "source_url": "https://www.openstreetmap.org/node/357416184",
    "created_at": "2026-05-26T01:04:19.967Z",
    "updated_at": "2026-05-26T01:04:19.967Z"
  },
  {
    "id": "overpass-0011",
    "name": "新大日",
    "description": "ja:新大日",
    "category": "walking",
    "latitude": 35.4516605,
    "longitude": 139.1767694,
    "source": "manual",
    "source_url": "https://www.openstreetmap.org/node/363527561",
    "created_at": "2026-05-26T01:04:19.967Z",
    "updated_at": "2026-05-26T01:04:19.967Z"
  },
  {
    "id": "overpass-0012",
    "name": "行者岳",
    "description": "ja:行者岳",
    "category": "walking",
    "latitude": 35.4454069,
    "longitude": 139.1822317,
    "source": "manual",
    "source_url": "https://www.openstreetmap.org/node/363527591",
    "created_at": "2026-05-26T01:04:19.967Z",
    "updated_at": "2026-05-26T01:04:19.967Z"
  },
  {
    "id": "overpass-0013",
    "name": "烏尾山",
    "description": "ja:烏尾山",
    "category": "walking",
    "latitude": 35.439582,
    "longitude": 139.185487,
    "source": "manual",
    "source_url": "https://www.openstreetmap.org/node/363527617",
    "created_at": "2026-05-26T01:04:19.967Z",
    "updated_at": "2026-05-26T01:04:19.967Z"
  },
  {
    "id": "overpass-0014",
    "name": "桜山展望台",
    "description": null,
    "category": "meditation",
    "latitude": 35.8234486,
    "longitude": 139.3449473,
    "source": "manual",
    "source_url": "https://www.openstreetmap.org/node/365787022",
    "created_at": "2026-05-26T01:04:19.967Z",
    "updated_at": "2026-05-26T01:04:19.967Z",
    "tags": [
      "cherry_blossom"
    ]
  },
  {
    "id": "overpass-0015",
    "name": "Lakeside Observation Building",
    "description": null,
    "category": "meditation",
    "latitude": 35.1962174,
    "longitude": 139.0260842,
    "source": "manual",
    "source_url": "https://www.openstreetmap.org/node/391237969",
    "created_at": "2026-05-26T01:04:19.967Z",
    "updated_at": "2026-05-26T01:04:19.967Z",
    "tags": [
      "wheelchair"
    ]
  },
  {
    "id": "overpass-0016",
    "name": "子の山",
    "description": null,
    "category": "walking",
    "latitude": 35.9072981,
    "longitude": 139.1888835,
    "source": "manual",
    "source_url": "https://www.openstreetmap.org/node/409503611",
    "created_at": "2026-05-26T01:04:19.967Z",
    "updated_at": "2026-05-26T01:04:19.967Z"
  },
  {
    "id": "overpass-0017",
    "name": "浅間山",
    "description": null,
    "category": "walking",
    "latitude": 35.322111,
    "longitude": 139.3123404,
    "source": "manual",
    "source_url": "https://www.openstreetmap.org/node/494831701",
    "created_at": "2026-05-26T01:04:19.967Z",
    "updated_at": "2026-05-26T01:04:19.967Z"
  },
  {
    "id": "overpass-0018",
    "name": "高麗山",
    "description": "ja:高麗山",
    "category": "walking",
    "latitude": 35.3229076,
    "longitude": 139.3214142,
    "source": "manual",
    "source_url": "https://www.openstreetmap.org/node/494831767",
    "created_at": "2026-05-26T01:04:19.967Z",
    "updated_at": "2026-05-26T01:04:19.967Z"
  },
  {
    "id": "overpass-0019",
    "name": "湘南平",
    "description": "ja:湘南平",
    "category": "walking",
    "latitude": 35.3198696,
    "longitude": 139.3087418,
    "source": "manual",
    "source_url": "https://www.openstreetmap.org/node/494831838",
    "created_at": "2026-05-26T01:04:19.967Z",
    "updated_at": "2026-05-26T01:04:19.967Z"
  },
  {
    "id": "overpass-0020",
    "name": "鷹取山",
    "description": null,
    "category": "walking",
    "latitude": 35.3293164,
    "longitude": 139.2753593,
    "source": "manual",
    "source_url": "https://www.openstreetmap.org/node/496053593",
    "created_at": "2026-05-26T01:04:19.967Z",
    "updated_at": "2026-05-26T01:04:19.967Z"
  },
  {
    "id": "overpass-0021",
    "name": "日和田山",
    "description": "ja:日和田山",
    "category": "walking",
    "latitude": 35.893764,
    "longitude": 139.3048509,
    "source": "manual",
    "source_url": "https://www.openstreetmap.org/node/509903560",
    "created_at": "2026-05-26T01:04:19.967Z",
    "updated_at": "2026-05-26T01:04:19.967Z"
  },
  {
    "id": "overpass-0022",
    "name": "物見山",
    "description": null,
    "category": "walking",
    "latitude": 35.9032886,
    "longitude": 139.2937056,
    "source": "manual",
    "source_url": "https://www.openstreetmap.org/node/509903681",
    "created_at": "2026-05-26T01:04:19.967Z",
    "updated_at": "2026-05-26T01:04:19.967Z"
  },
  {
    "id": "overpass-0023",
    "name": "雲取山",
    "description": "東京都最高峰",
    "category": "walking",
    "latitude": 35.8555351,
    "longitude": 138.9439287,
    "source": "manual",
    "source_url": "https://www.openstreetmap.org/node/531000790",
    "created_at": "2026-05-26T01:04:19.967Z",
    "updated_at": "2026-05-26T01:04:19.967Z"
  },
  {
    "id": "overpass-0024",
    "name": "飯室山",
    "description": null,
    "category": "walking",
    "latitude": 35.6124965,
    "longitude": 139.5625482,
    "source": "manual",
    "source_url": "https://www.openstreetmap.org/node/538944387",
    "created_at": "2026-05-26T01:04:19.967Z",
    "updated_at": "2026-05-26T01:04:19.967Z"
  },
  {
    "id": "overpass-0025",
    "name": "枡形山",
    "description": null,
    "category": "walking",
    "latitude": 35.6111218,
    "longitude": 139.5605655,
    "source": "manual",
    "source_url": "https://www.openstreetmap.org/node/538944991",
    "created_at": "2026-05-26T01:04:19.967Z",
    "updated_at": "2026-05-26T01:04:19.967Z"
  },
  {
    "id": "overpass-0026",
    "name": "フランス山",
    "description": null,
    "category": "walking",
    "latitude": 35.4411829,
    "longitude": 139.6535072,
    "source": "manual",
    "source_url": "https://www.openstreetmap.org/node/610953772",
    "created_at": "2026-05-26T01:04:19.967Z",
    "updated_at": "2026-05-26T01:04:19.967Z"
  },
  {
    "id": "overpass-0027",
    "name": "大丸山",
    "description": "横浜市最高峰",
    "category": "walking",
    "latitude": 35.3462081,
    "longitude": 139.5894234,
    "source": "manual",
    "source_url": "https://www.openstreetmap.org/node/611629159",
    "created_at": "2026-05-26T01:04:19.967Z",
    "updated_at": "2026-05-26T01:04:19.967Z"
  },
  {
    "id": "overpass-0028",
    "name": "妙音沢(Myouon Zawa)",
    "description": null,
    "category": "meditation",
    "latitude": 35.7764083,
    "longitude": 139.5762697,
    "source": "manual",
    "source_url": "https://www.openstreetmap.org/node/631463070",
    "created_at": "2026-05-26T01:04:19.967Z",
    "updated_at": "2026-05-26T01:04:19.967Z"
  },
  {
    "id": "overpass-0029",
    "name": "大山",
    "description": "ja:大山 (神奈川県)",
    "category": "walking",
    "latitude": 35.4408317,
    "longitude": 139.2313338,
    "source": "manual",
    "source_url": "https://www.openstreetmap.org/node/648765094",
    "created_at": "2026-05-26T01:04:19.967Z",
    "updated_at": "2026-05-26T01:04:19.967Z"
  },
  {
    "id": "overpass-0030",
    "name": "高尾山",
    "description": "ja:高尾山",
    "category": "walking",
    "latitude": 35.6252267,
    "longitude": 139.2436878,
    "source": "manual",
    "source_url": "https://www.openstreetmap.org/node/675449030",
    "created_at": "2026-05-26T01:04:19.967Z",
    "updated_at": "2026-05-26T01:04:19.967Z"
  },
  {
    "id": "overpass-0031",
    "name": "金比羅台",
    "description": null,
    "category": "meditation",
    "latitude": 35.6355018,
    "longitude": 139.2617795,
    "source": "manual",
    "source_url": "https://www.openstreetmap.org/node/702326976",
    "created_at": "2026-05-26T01:04:19.967Z",
    "updated_at": "2026-05-26T01:04:19.967Z"
  },
  {
    "id": "overpass-0032",
    "name": "大菩薩嶺",
    "description": "ja:大菩薩嶺",
    "category": "walking",
    "latitude": 35.7487175,
    "longitude": 138.8454802,
    "source": "manual",
    "source_url": "https://www.openstreetmap.org/node/705063479",
    "created_at": "2026-05-26T01:04:19.967Z",
    "updated_at": "2026-05-26T01:04:19.967Z"
  },
  {
    "id": "overpass-0033",
    "name": "大塚山",
    "description": null,
    "category": "walking",
    "latitude": 35.7924885,
    "longitude": 139.1468712,
    "source": "manual",
    "source_url": "https://www.openstreetmap.org/node/724150165",
    "created_at": "2026-05-26T01:04:19.967Z",
    "updated_at": "2026-05-26T01:04:19.967Z"
  },
  {
    "id": "overpass-0034",
    "name": "Kaze-no-oka Overlook",
    "description": null,
    "category": "meditation",
    "latitude": 35.4972625,
    "longitude": 139.5232323,
    "source": "manual",
    "source_url": "https://www.openstreetmap.org/node/734220423",
    "created_at": "2026-05-26T01:04:19.967Z",
    "updated_at": "2026-05-26T01:04:19.967Z"
  },
  {
    "id": "overpass-0035",
    "name": "鋸山",
    "description": "ja:鋸山 (千葉県)",
    "category": "walking",
    "latitude": 35.1585708,
    "longitude": 139.828853,
    "source": "manual",
    "source_url": "https://www.openstreetmap.org/node/760291649",
    "created_at": "2026-05-26T01:04:19.967Z",
    "updated_at": "2026-05-26T01:04:19.967Z"
  },
  {
    "id": "overpass-0036",
    "name": "しだれ柳",
    "description": "往時の平潟道の名残",
    "category": "meditation",
    "latitude": 35.7874997,
    "longitude": 139.8951449,
    "source": "manual",
    "source_url": "https://www.openstreetmap.org/node/771342043",
    "created_at": "2026-05-26T01:04:19.967Z",
    "updated_at": "2026-05-26T01:04:19.967Z"
  },
  {
    "id": "overpass-0037",
    "name": "香貫山展望台",
    "description": null,
    "category": "meditation",
    "latitude": 35.0918612,
    "longitude": 138.8756948,
    "source": "manual",
    "source_url": "https://www.openstreetmap.org/node/777523388",
    "created_at": "2026-05-26T01:04:19.967Z",
    "updated_at": "2026-05-26T01:04:19.967Z"
  },
  {
    "id": "overpass-0038",
    "name": "横山",
    "description": "ja:横山 (静岡県)",
    "category": "walking",
    "latitude": 35.0876078,
    "longitude": 138.8892405,
    "source": "manual",
    "source_url": "https://www.openstreetmap.org/node/777655819",
    "created_at": "2026-05-26T01:04:19.967Z",
    "updated_at": "2026-05-26T01:04:19.967Z"
  },
  {
    "id": "overpass-0039",
    "name": "徳倉山",
    "description": "ja:徳倉山",
    "category": "walking",
    "latitude": 35.0784644,
    "longitude": 138.8884239,
    "source": "manual",
    "source_url": "https://www.openstreetmap.org/node/777685253",
    "created_at": "2026-05-26T01:04:19.967Z",
    "updated_at": "2026-05-26T01:04:19.967Z"
  },
  {
    "id": "overpass-0040",
    "name": "小仏城山",
    "description": "ja:城山 (東京都・神奈川県)",
    "category": "walking",
    "latitude": 35.6298691,
    "longitude": 139.22117,
    "source": "manual",
    "source_url": "https://www.openstreetmap.org/node/824017753",
    "created_at": "2026-05-26T01:04:19.967Z",
    "updated_at": "2026-05-26T01:04:19.967Z"
  },
  {
    "id": "overpass-0041",
    "name": "小仏峠",
    "description": "ja:小仏峠",
    "category": "meditation",
    "latitude": 35.6362447,
    "longitude": 139.2168348,
    "source": "manual",
    "source_url": "https://www.openstreetmap.org/node/824017756",
    "created_at": "2026-05-26T01:04:19.967Z",
    "updated_at": "2026-05-26T01:04:19.967Z"
  },
  {
    "id": "overpass-0042",
    "name": "東京シティビュー",
    "description": null,
    "category": "meditation",
    "latitude": 35.66043,
    "longitude": 139.7290554,
    "source": "manual",
    "source_url": "https://www.openstreetmap.org/node/919282252",
    "created_at": "2026-05-26T01:04:19.967Z",
    "updated_at": "2026-05-26T01:04:19.967Z",
    "tags": [
      "wheelchair"
    ]
  },
  {
    "id": "overpass-0043",
    "name": "高尾山　大見晴園地",
    "description": null,
    "category": "meditation",
    "latitude": 35.6245849,
    "longitude": 139.2431553,
    "source": "manual",
    "source_url": "https://www.openstreetmap.org/node/945081916",
    "created_at": "2026-05-26T01:04:19.967Z",
    "updated_at": "2026-05-26T01:04:19.967Z"
  },
  {
    "id": "overpass-0044",
    "name": "赤岩岳",
    "description": null,
    "category": "walking",
    "latitude": 36.03361,
    "longitude": 138.8117433,
    "source": "manual",
    "source_url": "https://www.openstreetmap.org/node/1058510430",
    "created_at": "2026-05-26T01:04:19.967Z",
    "updated_at": "2026-05-26T01:04:19.967Z"
  },
  {
    "id": "overpass-0045",
    "name": "柏木山",
    "description": null,
    "category": "walking",
    "latitude": 35.85622,
    "longitude": 139.27736,
    "source": "manual",
    "source_url": "https://www.openstreetmap.org/node/1348983545",
    "created_at": "2026-05-26T01:04:19.967Z",
    "updated_at": "2026-05-26T01:04:19.967Z"
  },
  {
    "id": "overpass-0046",
    "name": "Carrot Tower 26F",
    "description": null,
    "category": "meditation",
    "latitude": 35.6437992,
    "longitude": 139.6693258,
    "source": "manual",
    "source_url": "https://www.openstreetmap.org/node/1394715627",
    "created_at": "2026-05-26T01:04:19.967Z",
    "updated_at": "2026-05-26T01:04:19.967Z"
  },
  {
    "id": "overpass-0047",
    "name": "大沢山",
    "description": null,
    "category": "walking",
    "latitude": 35.7333472,
    "longitude": 139.0149843,
    "source": "manual",
    "source_url": "https://www.openstreetmap.org/node/1401023172",
    "created_at": "2026-05-26T01:04:19.967Z",
    "updated_at": "2026-05-26T01:04:19.967Z"
  },
  {
    "id": "overpass-0048",
    "name": "三頭山 西峰",
    "description": null,
    "category": "walking",
    "latitude": 35.7389371,
    "longitude": 139.0122308,
    "source": "manual",
    "source_url": "https://www.openstreetmap.org/node/1401025178",
    "created_at": "2026-05-26T01:04:19.967Z",
    "updated_at": "2026-05-26T01:04:19.967Z"
  },
  {
    "id": "overpass-0049",
    "name": "三頭山 中央峰",
    "description": null,
    "category": "walking",
    "latitude": 35.7389612,
    "longitude": 139.0138253,
    "source": "manual",
    "source_url": "https://www.openstreetmap.org/node/1401025210",
    "created_at": "2026-05-26T01:04:19.967Z",
    "updated_at": "2026-05-26T01:04:19.967Z"
  },
  {
    "id": "overpass-0050",
    "name": "すすきの草原",
    "description": null,
    "category": "meditation",
    "latitude": 35.2603653,
    "longitude": 139.0088361,
    "source": "manual",
    "source_url": "https://www.openstreetmap.org/node/1436512588",
    "created_at": "2026-05-26T01:04:19.967Z",
    "updated_at": "2026-05-26T01:04:19.967Z"
  },
  {
    "id": "overpass-0051",
    "name": "Sky Circus",
    "description": null,
    "category": "meditation",
    "latitude": 35.729442,
    "longitude": 139.7180675,
    "source": "manual",
    "source_url": "https://www.openstreetmap.org/node/1439037612",
    "created_at": "2026-05-26T01:04:19.967Z",
    "updated_at": "2026-05-26T01:04:19.967Z",
    "tags": [
      "wheelchair"
    ]
  },
  {
    "id": "overpass-0052",
    "name": "仙元山",
    "description": "ja:仙元山",
    "category": "walking",
    "latitude": 36.041673,
    "longitude": 139.27106,
    "source": "manual",
    "source_url": "https://www.openstreetmap.org/node/1446105027",
    "created_at": "2026-05-26T01:04:19.967Z",
    "updated_at": "2026-05-26T01:04:19.967Z"
  },
  {
    "id": "overpass-0053",
    "name": "物見峠",
    "description": null,
    "category": "meditation",
    "latitude": 35.4645925,
    "longitude": 139.2963325,
    "source": "manual",
    "source_url": "https://www.openstreetmap.org/node/1447614193",
    "created_at": "2026-05-26T01:04:19.967Z",
    "updated_at": "2026-05-26T01:04:19.967Z"
  },
  {
    "id": "overpass-0054",
    "name": "むじな坂峠",
    "description": null,
    "category": "meditation",
    "latitude": 35.4668344,
    "longitude": 139.296689,
    "source": "manual",
    "source_url": "https://www.openstreetmap.org/node/1447614778",
    "created_at": "2026-05-26T01:04:19.967Z",
    "updated_at": "2026-05-26T01:04:19.967Z"
  },
  {
    "id": "overpass-0055",
    "name": "辺室山",
    "description": "ja:辺室山",
    "category": "walking",
    "latitude": 35.489765,
    "longitude": 139.254752,
    "source": "manual",
    "source_url": "https://www.openstreetmap.org/node/1447627646",
    "created_at": "2026-05-26T01:04:19.967Z",
    "updated_at": "2026-05-26T01:04:19.967Z"
  },
  {
    "id": "overpass-0056",
    "name": "衣浸山",
    "description": null,
    "category": "walking",
    "latitude": 35.5195423,
    "longitude": 139.2596118,
    "source": "manual",
    "source_url": "https://www.openstreetmap.org/node/1447654055",
    "created_at": "2026-05-26T01:04:19.967Z",
    "updated_at": "2026-05-26T01:04:19.967Z"
  },
  {
    "id": "overpass-0057",
    "name": "苺山",
    "description": null,
    "category": "walking",
    "latitude": 35.6262138,
    "longitude": 139.2278088,
    "source": "manual",
    "source_url": "https://www.openstreetmap.org/node/1456948984",
    "created_at": "2026-05-26T01:04:19.967Z",
    "updated_at": "2026-05-26T01:04:19.967Z"
  },
  {
    "id": "overpass-0058",
    "name": "丹沢山",
    "description": null,
    "category": "walking",
    "latitude": 35.4743625,
    "longitude": 139.1626918,
    "source": "manual",
    "source_url": "https://www.openstreetmap.org/node/1512981907",
    "created_at": "2026-05-26T01:04:19.967Z",
    "updated_at": "2026-05-26T01:04:19.967Z"
  },
  {
    "id": "overpass-0059",
    "name": "仙元峠",
    "description": null,
    "category": "walking",
    "latitude": 35.8748368,
    "longitude": 139.0825835,
    "source": "manual",
    "source_url": "https://www.openstreetmap.org/node/1516496667",
    "created_at": "2026-05-26T01:04:19.967Z",
    "updated_at": "2026-05-26T01:04:19.967Z"
  },
  {
    "id": "overpass-0060",
    "name": "川越山",
    "description": null,
    "category": "walking",
    "latitude": 35.945996,
    "longitude": 139.162436,
    "source": "manual",
    "source_url": "https://www.openstreetmap.org/node/1519053504",
    "created_at": "2026-05-26T01:04:19.967Z",
    "updated_at": "2026-05-26T01:04:19.967Z"
  },
  {
    "id": "overpass-0061",
    "name": "正丸山",
    "description": null,
    "category": "walking",
    "latitude": 35.948919,
    "longitude": 139.163552,
    "source": "manual",
    "source_url": "https://www.openstreetmap.org/node/1519054000",
    "created_at": "2026-05-26T01:04:19.967Z",
    "updated_at": "2026-05-26T01:04:19.967Z"
  },
  {
    "id": "overpass-0062",
    "name": "甲仁田山",
    "description": null,
    "category": "walking",
    "latitude": 35.9593087,
    "longitude": 139.1454475,
    "source": "manual",
    "source_url": "https://www.openstreetmap.org/node/1519056480",
    "created_at": "2026-05-26T01:04:19.967Z",
    "updated_at": "2026-05-26T01:04:19.967Z"
  },
  {
    "id": "overpass-0063",
    "name": "日向山",
    "description": null,
    "category": "walking",
    "latitude": 35.989294,
    "longitude": 139.132989,
    "source": "manual",
    "source_url": "https://www.openstreetmap.org/node/1519070033",
    "created_at": "2026-05-26T01:04:19.967Z",
    "updated_at": "2026-05-26T01:04:19.967Z"
  },
  {
    "id": "overpass-0064",
    "name": "聖峰",
    "description": null,
    "category": "meditation",
    "latitude": 35.4024,
    "longitude": 139.2652253,
    "source": "manual",
    "source_url": "https://www.openstreetmap.org/node/1525926868",
    "created_at": "2026-05-26T01:04:19.967Z",
    "updated_at": "2026-05-26T01:04:19.967Z"
  },
  {
    "id": "overpass-0065",
    "name": "松田山　夜景スポット",
    "description": null,
    "category": "meditation",
    "latitude": 35.36134,
    "longitude": 139.1350631,
    "source": "manual",
    "source_url": "https://www.openstreetmap.org/node/1525932293",
    "created_at": "2026-05-26T01:04:19.967Z",
    "updated_at": "2026-05-26T01:04:19.967Z",
    "tags": [
      "night_view"
    ]
  },
  {
    "id": "overpass-0066",
    "name": "糠指山",
    "description": null,
    "category": "walking",
    "latitude": 35.7548109,
    "longitude": 139.0073574,
    "source": "manual",
    "source_url": "https://www.openstreetmap.org/node/1593220776",
    "created_at": "2026-05-26T01:04:19.967Z",
    "updated_at": "2026-05-26T01:04:19.967Z"
  },
  {
    "id": "overpass-0067",
    "name": "棒ノ嶺（棒ノ折山）",
    "description": null,
    "category": "walking",
    "latitude": 35.8586784,
    "longitude": 139.1550986,
    "source": "manual",
    "source_url": "https://www.openstreetmap.org/node/1593299747",
    "created_at": "2026-05-26T01:04:19.967Z",
    "updated_at": "2026-05-26T01:04:19.967Z"
  },
  {
    "id": "overpass-0068",
    "name": "馬引沢峠",
    "description": null,
    "category": "walking",
    "latitude": 35.7672764,
    "longitude": 139.2447629,
    "source": "manual",
    "source_url": "https://www.openstreetmap.org/node/1594997330",
    "created_at": "2026-05-26T01:04:19.967Z",
    "updated_at": "2026-05-26T01:04:19.967Z"
  },
  {
    "id": "overpass-0069",
    "name": "鹿倉山",
    "description": null,
    "category": "walking",
    "latitude": 35.770329,
    "longitude": 138.949763,
    "source": "manual",
    "source_url": "https://www.openstreetmap.org/node/1597719000",
    "created_at": "2026-05-26T01:04:19.967Z",
    "updated_at": "2026-05-26T01:04:19.967Z"
  },
  {
    "id": "overpass-0070",
    "name": "大室山",
    "description": "ja:大室山 (丹沢)",
    "category": "walking",
    "latitude": 35.510958,
    "longitude": 139.068526,
    "source": "manual",
    "source_url": "https://www.openstreetmap.org/node/1598891630",
    "created_at": "2026-05-26T01:04:19.967Z",
    "updated_at": "2026-05-26T01:04:19.967Z"
  },
  {
    "id": "overpass-0071",
    "name": "白谷ノ丸",
    "description": null,
    "category": "walking",
    "latitude": 35.6844729,
    "longitude": 138.8580741,
    "source": "manual",
    "source_url": "https://www.openstreetmap.org/node/1599604065",
    "created_at": "2026-05-26T01:04:19.967Z",
    "updated_at": "2026-05-26T01:04:19.967Z"
  },
  {
    "id": "overpass-0072",
    "name": "大岳山",
    "description": "ja:大岳山 (東京都)",
    "category": "walking",
    "latitude": 35.7651956,
    "longitude": 139.1303653,
    "source": "manual",
    "source_url": "https://www.openstreetmap.org/node/1629787990",
    "created_at": "2026-05-26T01:04:19.967Z",
    "updated_at": "2026-05-26T01:04:19.967Z"
  },
  {
    "id": "overpass-0073",
    "name": "鋸山",
    "description": null,
    "category": "walking",
    "latitude": 35.7792411,
    "longitude": 139.1059477,
    "source": "manual",
    "source_url": "https://www.openstreetmap.org/node/1629787991",
    "created_at": "2026-05-26T01:04:19.968Z",
    "updated_at": "2026-05-26T01:04:19.968Z"
  },
  {
    "id": "overpass-0074",
    "name": "六道山展望台",
    "description": null,
    "category": "meditation",
    "latitude": 35.7759525,
    "longitude": 139.3681399,
    "source": "manual",
    "source_url": "https://www.openstreetmap.org/node/1632894605",
    "created_at": "2026-05-26T01:04:19.968Z",
    "updated_at": "2026-05-26T01:04:19.968Z"
  },
  {
    "id": "overpass-0075",
    "name": "のげやまこうえんてんぼうだい",
    "description": null,
    "category": "meditation",
    "latitude": 35.4449876,
    "longitude": 139.6232658,
    "source": "manual",
    "source_url": "https://www.openstreetmap.org/node/1633845141",
    "created_at": "2026-05-26T01:04:19.968Z",
    "updated_at": "2026-05-26T01:04:19.968Z",
    "tags": [
      "wheelchair"
    ]
  },
  {
    "id": "overpass-0076",
    "name": "檜洞丸",
    "description": "ja:檜洞丸",
    "category": "walking",
    "latitude": 35.4789975,
    "longitude": 139.1027579,
    "source": "manual",
    "source_url": "https://www.openstreetmap.org/node/1654433177",
    "created_at": "2026-05-26T01:04:19.968Z",
    "updated_at": "2026-05-26T01:04:19.968Z"
  },
  {
    "id": "overpass-0077",
    "name": "蛭ヶ岳",
    "description": "ja:蛭ヶ岳",
    "category": "walking",
    "latitude": 35.4862312,
    "longitude": 139.1388014,
    "source": "manual",
    "source_url": "https://www.openstreetmap.org/node/1654433338",
    "created_at": "2026-05-26T01:04:19.968Z",
    "updated_at": "2026-05-26T01:04:19.968Z"
  },
  {
    "id": "overpass-0078",
    "name": "袖平山",
    "description": "ja:袖平山",
    "category": "walking",
    "latitude": 35.5108324,
    "longitude": 139.1261896,
    "source": "manual",
    "source_url": "https://www.openstreetmap.org/node/1654436017",
    "created_at": "2026-05-26T01:04:19.968Z",
    "updated_at": "2026-05-26T01:04:19.968Z"
  },
  {
    "id": "overpass-0079",
    "name": "鳥屋越",
    "description": null,
    "category": "walking",
    "latitude": 35.540747,
    "longitude": 139.233523,
    "source": "manual",
    "source_url": "https://www.openstreetmap.org/node/1654445220",
    "created_at": "2026-05-26T01:04:19.968Z",
    "updated_at": "2026-05-26T01:04:19.968Z"
  },
  {
    "id": "overpass-0080",
    "name": "権現平",
    "description": null,
    "category": "walking",
    "latitude": 35.546007,
    "longitude": 139.23503,
    "source": "manual",
    "source_url": "https://www.openstreetmap.org/node/1654449260",
    "created_at": "2026-05-26T01:04:19.968Z",
    "updated_at": "2026-05-26T01:04:19.968Z"
  },
  {
    "id": "overpass-0081",
    "name": "南山",
    "description": null,
    "category": "walking",
    "latitude": 35.5486839,
    "longitude": 139.2452418,
    "source": "manual",
    "source_url": "https://www.openstreetmap.org/node/1654451507",
    "created_at": "2026-05-26T01:04:19.968Z",
    "updated_at": "2026-05-26T01:04:19.968Z"
  },
  {
    "id": "overpass-0082",
    "name": "第4休憩所",
    "description": null,
    "category": "meditation",
    "latitude": 35.7931706,
    "longitude": 139.239681,
    "source": "manual",
    "source_url": "https://www.openstreetmap.org/node/1657971581",
    "created_at": "2026-05-26T01:04:19.968Z",
    "updated_at": "2026-05-26T01:04:19.968Z",
    "tags": [
      "bench"
    ]
  },
  {
    "id": "overpass-0083",
    "name": "第3休憩所",
    "description": null,
    "category": "meditation",
    "latitude": 35.7934729,
    "longitude": 139.2467601,
    "source": "manual",
    "source_url": "https://www.openstreetmap.org/node/1657971598",
    "created_at": "2026-05-26T01:04:19.968Z",
    "updated_at": "2026-05-26T01:04:19.968Z",
    "tags": [
      "bench"
    ]
  },
  {
    "id": "overpass-0084",
    "name": "稲荷山公園展望台",
    "description": null,
    "category": "meditation",
    "latitude": 35.8513619,
    "longitude": 139.4008142,
    "source": "manual",
    "source_url": "https://www.openstreetmap.org/node/1667665516",
    "created_at": "2026-05-26T01:04:19.968Z",
    "updated_at": "2026-05-26T01:04:19.968Z"
  },
  {
    "id": "overpass-0085",
    "name": "パノラマ台",
    "description": null,
    "category": "meditation",
    "latitude": 35.4126109,
    "longitude": 138.9094791,
    "source": "manual",
    "source_url": "https://www.openstreetmap.org/node/1668712785",
    "created_at": "2026-05-26T01:04:19.968Z",
    "updated_at": "2026-05-26T01:04:19.968Z"
  },
  {
    "id": "overpass-0086",
    "name": "薬師堂のマキ",
    "description": null,
    "category": "meditation",
    "latitude": 35.8627291,
    "longitude": 139.5902741,
    "source": "manual",
    "source_url": "https://www.openstreetmap.org/node/1678068361",
    "created_at": "2026-05-26T01:04:19.968Z",
    "updated_at": "2026-05-26T01:04:19.968Z"
  },
  {
    "id": "overpass-0087",
    "name": "富士山とランドマークタワー",
    "description": null,
    "category": "meditation",
    "latitude": 35.4418062,
    "longitude": 139.5620334,
    "source": "manual",
    "source_url": "https://www.openstreetmap.org/node/1678499478",
    "created_at": "2026-05-26T01:04:19.968Z",
    "updated_at": "2026-05-26T01:04:19.968Z"
  },
  {
    "id": "overpass-0088",
    "name": "日の出山",
    "description": null,
    "category": "walking",
    "latitude": 35.7812407,
    "longitude": 139.1674711,
    "source": "manual",
    "source_url": "https://www.openstreetmap.org/node/1681906653",
    "created_at": "2026-05-26T01:04:19.968Z",
    "updated_at": "2026-05-26T01:04:19.968Z"
  },
  {
    "id": "overpass-0089",
    "name": "三室山",
    "description": null,
    "category": "walking",
    "latitude": 35.7862259,
    "longitude": 139.1985434,
    "source": "manual",
    "source_url": "https://www.openstreetmap.org/node/1681906655",
    "created_at": "2026-05-26T01:04:19.968Z",
    "updated_at": "2026-05-26T01:04:19.968Z"
  },
  {
    "id": "overpass-0090",
    "name": "明治百年記念展望台",
    "description": null,
    "category": "meditation",
    "latitude": 35.312756,
    "longitude": 139.7854193,
    "source": "manual",
    "source_url": "https://www.openstreetmap.org/node/1705606648",
    "created_at": "2026-05-26T01:04:19.968Z",
    "updated_at": "2026-05-26T01:04:19.968Z"
  },
  {
    "id": "overpass-0091",
    "name": "展望ベンチ",
    "description": null,
    "category": "meditation",
    "latitude": 35.3716782,
    "longitude": 139.243482,
    "source": "manual",
    "source_url": "https://www.openstreetmap.org/node/1707830135",
    "created_at": "2026-05-26T01:04:19.968Z",
    "updated_at": "2026-05-26T01:04:19.968Z",
    "tags": [
      "bench"
    ]
  },
  {
    "id": "overpass-0092",
    "name": "権現山",
    "description": null,
    "category": "walking",
    "latitude": 35.3717774,
    "longitude": 139.2432975,
    "source": "manual",
    "source_url": "https://www.openstreetmap.org/node/1707830136",
    "created_at": "2026-05-26T01:04:19.968Z",
    "updated_at": "2026-05-26T01:04:19.968Z"
  },
  {
    "id": "overpass-0093",
    "name": "弘法山",
    "description": "ja:弘法山",
    "category": "walking",
    "latitude": 35.3751459,
    "longitude": 139.2502445,
    "source": "manual",
    "source_url": "https://www.openstreetmap.org/node/1707830242",
    "created_at": "2026-05-26T01:04:19.968Z",
    "updated_at": "2026-05-26T01:04:19.968Z"
  },
  {
    "id": "overpass-0094",
    "name": "浅間山",
    "description": null,
    "category": "walking",
    "latitude": 35.3708517,
    "longitude": 139.2399095,
    "source": "manual",
    "source_url": "https://www.openstreetmap.org/node/1707858282",
    "created_at": "2026-05-26T01:04:19.968Z",
    "updated_at": "2026-05-26T01:04:19.968Z"
  },
  {
    "id": "overpass-0095",
    "name": "吾妻山",
    "description": null,
    "category": "walking",
    "latitude": 35.3843678,
    "longitude": 139.2687175,
    "source": "manual",
    "source_url": "https://www.openstreetmap.org/node/1711490672",
    "created_at": "2026-05-26T01:04:19.968Z",
    "updated_at": "2026-05-26T01:04:19.968Z"
  },
  {
    "id": "overpass-0096",
    "name": "平塚テレビ中継局",
    "description": "ja:平塚テレビ中継局",
    "category": "meditation",
    "latitude": 35.3206767,
    "longitude": 139.3105445,
    "source": "manual",
    "source_url": "https://www.openstreetmap.org/node/1719284136",
    "created_at": "2026-05-26T01:04:19.968Z",
    "updated_at": "2026-05-26T01:04:19.968Z"
  },
  {
    "id": "overpass-0097",
    "name": "陣馬山",
    "description": "en:Mount Jinba",
    "category": "walking",
    "latitude": 35.6521695,
    "longitude": 139.1665125,
    "source": "manual",
    "source_url": "https://www.openstreetmap.org/node/1727671797",
    "created_at": "2026-05-26T01:04:19.968Z",
    "updated_at": "2026-05-26T01:04:19.968Z"
  },
  {
    "id": "overpass-0098",
    "name": "扇山",
    "description": "ja:扇山 (大月市)",
    "category": "walking",
    "latitude": 35.6373287,
    "longitude": 139.0136516,
    "source": "manual",
    "source_url": "https://www.openstreetmap.org/node/1736088460",
    "created_at": "2026-05-26T01:04:19.968Z",
    "updated_at": "2026-05-26T01:04:19.968Z"
  },
  {
    "id": "overpass-0099",
    "name": "倉岳山",
    "description": "ja:倉岳山",
    "category": "walking",
    "latitude": 35.5840323,
    "longitude": 139.0198373,
    "source": "manual",
    "source_url": "https://www.openstreetmap.org/node/1744843829",
    "created_at": "2026-05-26T01:04:19.968Z",
    "updated_at": "2026-05-26T01:04:19.968Z"
  },
  {
    "id": "overpass-0100",
    "name": "新幹線が見える丘",
    "description": null,
    "category": "walking",
    "latitude": 35.4093185,
    "longitude": 139.4078043,
    "source": "manual",
    "source_url": "https://www.openstreetmap.org/node/1750408531",
    "created_at": "2026-05-26T01:04:19.968Z",
    "updated_at": "2026-05-26T01:04:19.968Z"
  },
  {
    "id": "overpass-0101",
    "name": "滝入ノ頭",
    "description": null,
    "category": "walking",
    "latitude": 35.9043499,
    "longitude": 139.114755,
    "source": "manual",
    "source_url": "https://www.openstreetmap.org/node/1760779147",
    "created_at": "2026-05-26T01:04:19.968Z",
    "updated_at": "2026-05-26T01:04:19.968Z"
  },
  {
    "id": "overpass-0102",
    "name": "祇園山見晴台",
    "description": null,
    "category": "meditation",
    "latitude": 35.3147638,
    "longitude": 139.5554223,
    "source": "manual",
    "source_url": "https://www.openstreetmap.org/node/1782561793",
    "created_at": "2026-05-26T01:04:19.968Z",
    "updated_at": "2026-05-26T01:04:19.968Z"
  },
  {
    "id": "overpass-0103",
    "name": "景信山",
    "description": "ja:景信山",
    "category": "walking",
    "latitude": 35.6460086,
    "longitude": 139.215893,
    "source": "manual",
    "source_url": "https://www.openstreetmap.org/node/1816157339",
    "created_at": "2026-05-26T01:04:19.968Z",
    "updated_at": "2026-05-26T01:04:19.968Z"
  },
  {
    "id": "overpass-0104",
    "name": "パノラマ台",
    "description": null,
    "category": "meditation",
    "latitude": 35.3109957,
    "longitude": 139.5674368,
    "source": "manual",
    "source_url": "https://www.openstreetmap.org/node/1826053372",
    "created_at": "2026-05-26T01:04:19.968Z",
    "updated_at": "2026-05-26T01:04:19.968Z"
  },
  {
    "id": "overpass-0105",
    "name": "景観百選(富士山)",
    "description": null,
    "category": "meditation",
    "latitude": 35.3129964,
    "longitude": 139.5685159,
    "source": "manual",
    "source_url": "https://www.openstreetmap.org/node/1826211444",
    "created_at": "2026-05-26T01:04:19.968Z",
    "updated_at": "2026-05-26T01:04:19.968Z"
  },
  {
    "id": "overpass-0106",
    "name": "大寺山",
    "description": null,
    "category": "walking",
    "latitude": 35.769417,
    "longitude": 138.9836716,
    "source": "manual",
    "source_url": "https://www.openstreetmap.org/node/1827273460",
    "created_at": "2026-05-26T01:04:19.968Z",
    "updated_at": "2026-05-26T01:04:19.968Z"
  },
  {
    "id": "overpass-0107",
    "name": "三頭山 東峰",
    "description": null,
    "category": "walking",
    "latitude": 35.738564,
    "longitude": 139.0140689,
    "source": "manual",
    "source_url": "https://www.openstreetmap.org/node/1827281756",
    "created_at": "2026-05-26T01:04:19.968Z",
    "updated_at": "2026-05-26T01:04:19.968Z"
  },
  {
    "id": "overpass-0108",
    "name": "丸山",
    "description": null,
    "category": "walking",
    "latitude": 35.6190021,
    "longitude": 138.9494491,
    "source": "manual",
    "source_url": "https://www.openstreetmap.org/node/1852480986",
    "created_at": "2026-05-26T01:04:19.968Z",
    "updated_at": "2026-05-26T01:04:19.968Z"
  },
  {
    "id": "overpass-0109",
    "name": "岩殿山",
    "description": null,
    "category": "walking",
    "latitude": 35.6206994,
    "longitude": 138.9483748,
    "source": "manual",
    "source_url": "https://www.openstreetmap.org/node/1852503364",
    "created_at": "2026-05-26T01:04:19.968Z",
    "updated_at": "2026-05-26T01:04:19.968Z"
  },
  {
    "id": "overpass-0110",
    "name": "稚児落し",
    "description": null,
    "category": "walking",
    "latitude": 35.6242597,
    "longitude": 138.9345886,
    "source": "manual",
    "source_url": "https://www.openstreetmap.org/node/1852509782",
    "created_at": "2026-05-26T01:04:19.968Z",
    "updated_at": "2026-05-26T01:04:19.968Z"
  },
  {
    "id": "overpass-0111",
    "name": "平尾山",
    "description": null,
    "category": "walking",
    "latitude": 35.4423863,
    "longitude": 138.8931727,
    "source": "manual",
    "source_url": "https://www.openstreetmap.org/node/1863871110",
    "created_at": "2026-05-26T01:04:19.968Z",
    "updated_at": "2026-05-26T01:04:19.968Z"
  },
  {
    "id": "overpass-0112",
    "name": "石割山",
    "description": "ja:石割山",
    "category": "walking",
    "latitude": 35.4504909,
    "longitude": 138.901359,
    "source": "manual",
    "source_url": "https://www.openstreetmap.org/node/1863871113",
    "created_at": "2026-05-26T01:04:19.968Z",
    "updated_at": "2026-05-26T01:04:19.968Z"
  },
  {
    "id": "overpass-0113",
    "name": "赤ぼっこ",
    "description": null,
    "category": "meditation",
    "latitude": 35.7691919,
    "longitude": 139.238226,
    "source": "manual",
    "source_url": "https://www.openstreetmap.org/node/1873552277",
    "created_at": "2026-05-26T01:04:19.968Z",
    "updated_at": "2026-05-26T01:04:19.968Z"
  },
  {
    "id": "overpass-0114",
    "name": "天狗岩",
    "description": null,
    "category": "meditation",
    "latitude": 35.770792,
    "longitude": 139.2348049,
    "source": "manual",
    "source_url": "https://www.openstreetmap.org/node/1873552289",
    "created_at": "2026-05-26T01:04:19.968Z",
    "updated_at": "2026-05-26T01:04:19.968Z"
  },
  {
    "id": "overpass-0115",
    "name": "テレコムセンター展望室",
    "description": null,
    "category": "meditation",
    "latitude": 35.617096,
    "longitude": 139.780078,
    "source": "manual",
    "source_url": "https://www.openstreetmap.org/node/1880385539",
    "created_at": "2026-05-26T01:04:19.968Z",
    "updated_at": "2026-05-26T01:04:19.968Z"
  },
  {
    "id": "overpass-0116",
    "name": "御前山",
    "description": "ja:御前山 (東京都)",
    "category": "walking",
    "latitude": 35.7701297,
    "longitude": 139.0805713,
    "source": "manual",
    "source_url": "https://www.openstreetmap.org/node/1883283876",
    "created_at": "2026-05-26T01:04:19.968Z",
    "updated_at": "2026-05-26T01:04:19.968Z"
  },
  {
    "id": "overpass-0117",
    "name": "鐘掛山",
    "description": null,
    "category": "walking",
    "latitude": 36.098083,
    "longitude": 139.017936,
    "source": "manual",
    "source_url": "https://www.openstreetmap.org/node/1908610948",
    "created_at": "2026-05-26T01:04:19.968Z",
    "updated_at": "2026-05-26T01:04:19.968Z"
  },
  {
    "id": "overpass-0118",
    "name": "関八州見晴台",
    "description": "ja:関八州見晴台",
    "category": "meditation",
    "latitude": 35.9458813,
    "longitude": 139.222137,
    "source": "manual",
    "source_url": "https://www.openstreetmap.org/node/1915115466",
    "created_at": "2026-05-26T01:04:19.968Z",
    "updated_at": "2026-05-26T01:04:19.968Z"
  },
  {
    "id": "overpass-0119",
    "name": "堂平山",
    "description": "ja:堂平山",
    "category": "walking",
    "latitude": 36.0057582,
    "longitude": 139.1900808,
    "source": "manual",
    "source_url": "https://www.openstreetmap.org/node/1918235893",
    "created_at": "2026-05-26T01:04:19.968Z",
    "updated_at": "2026-05-26T01:04:19.968Z"
  },
  {
    "id": "overpass-0120",
    "name": "二十六夜山",
    "description": null,
    "category": "walking",
    "latitude": 35.565836,
    "longitude": 139.0441023,
    "source": "manual",
    "source_url": "https://www.openstreetmap.org/node/1918278932",
    "created_at": "2026-05-26T01:04:19.968Z",
    "updated_at": "2026-05-26T01:04:19.968Z"
  },
  {
    "id": "overpass-0121",
    "name": "高畑山",
    "description": "ja:高畑山 (山梨県)",
    "category": "walking",
    "latitude": 35.579358,
    "longitude": 139.0040303,
    "source": "manual",
    "source_url": "https://www.openstreetmap.org/node/1924795089",
    "created_at": "2026-05-26T01:04:19.968Z",
    "updated_at": "2026-05-26T01:04:19.968Z"
  },
  {
    "id": "overpass-0122",
    "name": "惣岳山",
    "description": "ja:惣岳山",
    "category": "walking",
    "latitude": 35.7720189,
    "longitude": 139.0753798,
    "source": "manual",
    "source_url": "https://www.openstreetmap.org/node/1925163052",
    "created_at": "2026-05-26T01:04:19.968Z",
    "updated_at": "2026-05-26T01:04:19.968Z"
  },
  {
    "id": "overpass-0123",
    "name": "嵐山",
    "description": "ja:嵐山 (神奈川県)",
    "category": "walking",
    "latitude": 35.6116091,
    "longitude": 139.1986821,
    "source": "manual",
    "source_url": "https://www.openstreetmap.org/node/1939084060",
    "created_at": "2026-05-26T01:04:19.968Z",
    "updated_at": "2026-05-26T01:04:19.968Z"
  },
  {
    "id": "overpass-0124",
    "name": "鍋割山",
    "description": "ja:鍋割山 (神奈川県)",
    "category": "walking",
    "latitude": 35.4438534,
    "longitude": 139.1415288,
    "source": "manual",
    "source_url": "https://www.openstreetmap.org/node/1970901525",
    "created_at": "2026-05-26T01:04:19.968Z",
    "updated_at": "2026-05-26T01:04:19.968Z"
  },
  {
    "id": "overpass-0125",
    "name": "三ツ峠山",
    "description": "ja:三つ峠",
    "category": "walking",
    "latitude": 35.5491648,
    "longitude": 138.8091636,
    "source": "manual",
    "source_url": "https://www.openstreetmap.org/node/1971563467",
    "created_at": "2026-05-26T01:04:19.968Z",
    "updated_at": "2026-05-26T01:04:19.968Z"
  },
  {
    "id": "overpass-0126",
    "name": "石砂山",
    "description": null,
    "category": "walking",
    "latitude": 35.5724367,
    "longitude": 139.1694161,
    "source": "manual",
    "source_url": "https://www.openstreetmap.org/node/1985909542",
    "created_at": "2026-05-26T01:04:19.968Z",
    "updated_at": "2026-05-26T01:04:19.968Z"
  },
  {
    "id": "overpass-0127",
    "name": "石老山",
    "description": "ja:石老山",
    "category": "walking",
    "latitude": 35.5850709,
    "longitude": 139.190778,
    "source": "manual",
    "source_url": "https://www.openstreetmap.org/node/1985909546",
    "created_at": "2026-05-26T01:04:19.968Z",
    "updated_at": "2026-05-26T01:04:19.968Z"
  },
  {
    "id": "overpass-0128",
    "name": "秩父御岳山",
    "description": "ja:秩父御岳山",
    "category": "walking",
    "latitude": 35.9665805,
    "longitude": 138.94272,
    "source": "manual",
    "source_url": "https://www.openstreetmap.org/node/1998588310",
    "created_at": "2026-05-26T01:04:19.968Z",
    "updated_at": "2026-05-26T01:04:19.968Z"
  },
  {
    "id": "overpass-0129",
    "name": "富士岬平",
    "description": null,
    "category": "meditation",
    "latitude": 35.4376803,
    "longitude": 138.9275733,
    "source": "manual",
    "source_url": "https://www.openstreetmap.org/node/2008102149",
    "created_at": "2026-05-26T01:04:19.968Z",
    "updated_at": "2026-05-26T01:04:19.968Z"
  },
  {
    "id": "overpass-0130",
    "name": "高指山",
    "description": null,
    "category": "walking",
    "latitude": 35.4329177,
    "longitude": 138.9263803,
    "source": "manual",
    "source_url": "https://www.openstreetmap.org/node/2008147278",
    "created_at": "2026-05-26T01:04:19.968Z",
    "updated_at": "2026-05-26T01:04:19.968Z"
  },
  {
    "id": "overpass-0131",
    "name": "大平山",
    "description": "ja:大平山 (鎌倉市)",
    "category": "walking",
    "latitude": 35.3375319,
    "longitude": 139.5723389,
    "source": "manual",
    "source_url": "https://www.openstreetmap.org/node/2027424019",
    "created_at": "2026-05-26T01:04:19.968Z",
    "updated_at": "2026-05-26T01:04:19.968Z"
  },
  {
    "id": "overpass-0132",
    "name": "見晴台",
    "description": null,
    "category": "meditation",
    "latitude": 35.4345884,
    "longitude": 139.2452728,
    "source": "manual",
    "source_url": "https://www.openstreetmap.org/node/2038087727",
    "created_at": "2026-05-26T01:04:19.968Z",
    "updated_at": "2026-05-26T01:04:19.968Z"
  },
  {
    "id": "overpass-0134",
    "name": "富士見台",
    "description": null,
    "category": "meditation",
    "latitude": 35.4355402,
    "longitude": 139.2317976,
    "source": "manual",
    "source_url": "https://www.openstreetmap.org/node/2068140284",
    "created_at": "2026-05-26T01:04:19.968Z",
    "updated_at": "2026-05-26T01:04:19.968Z"
  },
  {
    "id": "overpass-0135",
    "name": "三峰山",
    "description": "ja:三峰山 (丹沢)",
    "category": "walking",
    "latitude": 35.4646926,
    "longitude": 139.2447589,
    "source": "manual",
    "source_url": "https://www.openstreetmap.org/node/2087077479",
    "created_at": "2026-05-26T01:04:19.968Z",
    "updated_at": "2026-05-26T01:04:19.968Z"
  },
  {
    "id": "overpass-0136",
    "name": "鷹取山",
    "description": null,
    "category": "walking",
    "latitude": 35.6342086,
    "longitude": 139.1319304,
    "source": "manual",
    "source_url": "https://www.openstreetmap.org/node/2090550553",
    "created_at": "2026-05-26T01:04:19.968Z",
    "updated_at": "2026-05-26T01:04:19.968Z"
  },
  {
    "id": "overpass-0137",
    "name": "向山",
    "description": null,
    "category": "walking",
    "latitude": 35.546875,
    "longitude": 139.275016,
    "source": "manual",
    "source_url": "https://www.openstreetmap.org/node/2101549216",
    "created_at": "2026-05-26T01:04:19.968Z",
    "updated_at": "2026-05-26T01:04:19.968Z"
  },
  {
    "id": "overpass-0138",
    "name": "鍋嵐",
    "description": "ja:鍋嵐",
    "category": "walking",
    "latitude": 35.4854887,
    "longitude": 139.2364069,
    "source": "manual",
    "source_url": "https://www.openstreetmap.org/node/2108808387",
    "created_at": "2026-05-26T01:04:19.968Z",
    "updated_at": "2026-05-26T01:04:19.968Z"
  },
  {
    "id": "overpass-0139",
    "name": "展望台",
    "description": null,
    "category": "meditation",
    "latitude": 35.3216525,
    "longitude": 139.5890948,
    "source": "manual",
    "source_url": "https://www.openstreetmap.org/node/2128808370",
    "created_at": "2026-05-26T01:04:19.968Z",
    "updated_at": "2026-05-26T01:04:19.968Z"
  },
  {
    "id": "overpass-0140",
    "name": "清水坂山",
    "description": null,
    "category": "walking",
    "latitude": 35.3948134,
    "longitude": 139.6052456,
    "source": "manual",
    "source_url": "https://www.openstreetmap.org/node/2131873084",
    "created_at": "2026-05-26T01:04:19.968Z",
    "updated_at": "2026-05-26T01:04:19.968Z"
  },
  {
    "id": "overpass-0141",
    "name": "栗ノ木洞",
    "description": "ja:栗ノ木洞",
    "category": "walking",
    "latitude": 35.4241932,
    "longitude": 139.1466967,
    "source": "manual",
    "source_url": "https://www.openstreetmap.org/node/2136775523",
    "created_at": "2026-05-26T01:04:19.968Z",
    "updated_at": "2026-05-26T01:04:19.968Z"
  },
  {
    "id": "overpass-0142",
    "name": "櫟山",
    "description": null,
    "category": "walking",
    "latitude": 35.4186982,
    "longitude": 139.1481733,
    "source": "manual",
    "source_url": "https://www.openstreetmap.org/node/2136775612",
    "created_at": "2026-05-26T01:04:19.968Z",
    "updated_at": "2026-05-26T01:04:19.968Z"
  },
  {
    "id": "overpass-0143",
    "name": "浅間山",
    "description": "ja:浅間山 (箱根町)",
    "category": "walking",
    "latitude": 35.2334873,
    "longitude": 139.0595048,
    "source": "manual",
    "source_url": "https://www.openstreetmap.org/node/2143486956",
    "created_at": "2026-05-26T01:04:19.968Z",
    "updated_at": "2026-05-26T01:04:19.968Z"
  },
  {
    "id": "overpass-0144",
    "name": "鷹巣山",
    "description": "ja:鷹巣山 (神奈川県)",
    "category": "walking",
    "latitude": 35.2273485,
    "longitude": 139.0539125,
    "source": "manual",
    "source_url": "https://www.openstreetmap.org/node/2143496664",
    "created_at": "2026-05-26T01:04:19.968Z",
    "updated_at": "2026-05-26T01:04:19.968Z"
  },
  {
    "id": "overpass-0145",
    "name": "麻生山",
    "description": null,
    "category": "walking",
    "latitude": 35.7696434,
    "longitude": 139.1797679,
    "source": "manual",
    "source_url": "https://www.openstreetmap.org/node/2151396872",
    "created_at": "2026-05-26T01:04:19.968Z",
    "updated_at": "2026-05-26T01:04:19.968Z"
  },
  {
    "id": "overpass-0146",
    "name": "世附権現山",
    "description": "ja:権現山 (丹沢 世附)",
    "category": "walking",
    "latitude": 35.4305748,
    "longitude": 139.0252461,
    "source": "manual",
    "source_url": "https://www.openstreetmap.org/node/2158929886",
    "created_at": "2026-05-26T01:04:19.968Z",
    "updated_at": "2026-05-26T01:04:19.968Z"
  },
  {
    "id": "overpass-0147",
    "name": "浅間嶺",
    "description": null,
    "category": "walking",
    "latitude": 35.7200537,
    "longitude": 139.1022591,
    "source": "manual",
    "source_url": "https://www.openstreetmap.org/node/2169884485",
    "created_at": "2026-05-26T01:04:19.968Z",
    "updated_at": "2026-05-26T01:04:19.968Z"
  },
  {
    "id": "overpass-0148",
    "name": "金比羅公園展望台",
    "description": null,
    "category": "meditation",
    "latitude": 35.7361186,
    "longitude": 139.2083889,
    "source": "manual",
    "source_url": "https://www.openstreetmap.org/node/2190539042",
    "created_at": "2026-05-26T01:04:19.968Z",
    "updated_at": "2026-05-26T01:04:19.968Z"
  },
  {
    "id": "overpass-0149",
    "name": "高水山",
    "description": null,
    "category": "walking",
    "latitude": 35.8287437,
    "longitude": 139.1890472,
    "source": "manual",
    "source_url": "https://www.openstreetmap.org/node/2192062689",
    "created_at": "2026-05-26T01:04:19.968Z",
    "updated_at": "2026-05-26T01:04:19.968Z"
  },
  {
    "id": "overpass-0150",
    "name": "岩茸石山",
    "description": null,
    "category": "walking",
    "latitude": 35.8307011,
    "longitude": 139.1788011,
    "source": "manual",
    "source_url": "https://www.openstreetmap.org/node/2192073822",
    "created_at": "2026-05-26T01:04:19.968Z",
    "updated_at": "2026-05-26T01:04:19.968Z"
  },
  {
    "id": "overpass-0151",
    "name": "惣岳山",
    "description": null,
    "category": "walking",
    "latitude": 35.819166,
    "longitude": 139.1777652,
    "source": "manual",
    "source_url": "https://www.openstreetmap.org/node/2192073823",
    "created_at": "2026-05-26T01:04:19.968Z",
    "updated_at": "2026-05-26T01:04:19.968Z"
  },
  {
    "id": "overpass-0152",
    "name": "ミツバ岳",
    "description": null,
    "category": "walking",
    "latitude": 35.4208995,
    "longitude": 139.0140233,
    "source": "manual",
    "source_url": "https://www.openstreetmap.org/node/2216074601",
    "created_at": "2026-05-26T01:04:19.968Z",
    "updated_at": "2026-05-26T01:04:19.968Z"
  },
  {
    "id": "overpass-0153",
    "name": "百蔵山",
    "description": "ja:百蔵山",
    "category": "walking",
    "latitude": 35.6381703,
    "longitude": 138.9810787,
    "source": "manual",
    "source_url": "https://www.openstreetmap.org/node/2217829128",
    "created_at": "2026-05-26T01:04:19.968Z",
    "updated_at": "2026-05-26T01:04:19.968Z"
  },
  {
    "id": "overpass-0154",
    "name": "川崎マリエン",
    "description": null,
    "category": "meditation",
    "latitude": 35.4964997,
    "longitude": 139.7632627,
    "source": "manual",
    "source_url": "https://www.openstreetmap.org/node/2241101922",
    "created_at": "2026-05-26T01:04:19.968Z",
    "updated_at": "2026-05-26T01:04:19.968Z"
  },
  {
    "id": "overpass-0155",
    "name": "円海山",
    "description": null,
    "category": "walking",
    "latitude": 35.3612796,
    "longitude": 139.5944842,
    "source": "manual",
    "source_url": "https://www.openstreetmap.org/node/2266534254",
    "created_at": "2026-05-26T01:04:19.968Z",
    "updated_at": "2026-05-26T01:04:19.968Z"
  },
  {
    "id": "overpass-0156",
    "name": "金時山",
    "description": "ja:金時山",
    "category": "walking",
    "latitude": 35.2899433,
    "longitude": 139.0047198,
    "source": "manual",
    "source_url": "https://www.openstreetmap.org/node/2270162192",
    "created_at": "2026-05-26T01:04:19.968Z",
    "updated_at": "2026-05-26T01:04:19.968Z"
  },
  {
    "id": "overpass-0157",
    "name": "足柄公園",
    "description": null,
    "category": "meditation",
    "latitude": 35.3200758,
    "longitude": 139.0117745,
    "source": "manual",
    "source_url": "https://www.openstreetmap.org/node/2270165415",
    "created_at": "2026-05-26T01:04:19.969Z",
    "updated_at": "2026-05-26T01:04:19.969Z"
  },
  {
    "id": "overpass-0158",
    "name": "勝峰山",
    "description": null,
    "category": "walking",
    "latitude": 35.7526357,
    "longitude": 139.2180096,
    "source": "manual",
    "source_url": "https://www.openstreetmap.org/node/2287241473",
    "created_at": "2026-05-26T01:04:19.969Z",
    "updated_at": "2026-05-26T01:04:19.969Z"
  },
  {
    "id": "overpass-0159",
    "name": "飯森山",
    "description": null,
    "category": "walking",
    "latitude": 35.4388637,
    "longitude": 138.869977,
    "source": "manual",
    "source_url": "https://www.openstreetmap.org/node/2294516184",
    "created_at": "2026-05-26T01:04:19.969Z",
    "updated_at": "2026-05-26T01:04:19.969Z",
    "tags": [
      "shade"
    ]
  },
  {
    "id": "overpass-0160",
    "name": "大平山",
    "description": null,
    "category": "walking",
    "latitude": 35.4390997,
    "longitude": 138.8794398,
    "source": "manual",
    "source_url": "https://www.openstreetmap.org/node/2294516185",
    "created_at": "2026-05-26T01:04:19.969Z",
    "updated_at": "2026-05-26T01:04:19.969Z"
  },
  {
    "id": "overpass-0161",
    "name": "堂所山",
    "description": null,
    "category": "walking",
    "latitude": 35.6524251,
    "longitude": 139.1940592,
    "source": "manual",
    "source_url": "https://www.openstreetmap.org/node/2297760702",
    "created_at": "2026-05-26T01:04:19.969Z",
    "updated_at": "2026-05-26T01:04:19.969Z"
  },
  {
    "id": "overpass-0162",
    "name": "焼山",
    "description": "ja:焼山 (丹沢)",
    "category": "walking",
    "latitude": 35.5388591,
    "longitude": 139.16371,
    "source": "manual",
    "source_url": "https://www.openstreetmap.org/node/2300508280",
    "created_at": "2026-05-26T01:04:19.969Z",
    "updated_at": "2026-05-26T01:04:19.969Z"
  },
  {
    "id": "overpass-0163",
    "name": "黍殻山",
    "description": "ja:黍殻山",
    "category": "walking",
    "latitude": 35.5263911,
    "longitude": 139.1490356,
    "source": "manual",
    "source_url": "https://www.openstreetmap.org/node/2300508281",
    "created_at": "2026-05-26T01:04:19.969Z",
    "updated_at": "2026-05-26T01:04:19.969Z"
  },
  {
    "id": "overpass-0164",
    "name": "白岩山",
    "description": "ja:白岩山 (埼玉県)",
    "category": "walking",
    "latitude": 35.8788487,
    "longitude": 138.9522519,
    "source": "manual",
    "source_url": "https://www.openstreetmap.org/node/2300534131",
    "created_at": "2026-05-26T01:04:19.969Z",
    "updated_at": "2026-05-26T01:04:19.969Z"
  },
  {
    "id": "overpass-0165",
    "name": "霧藻ケ峰",
    "description": "ja:霧藻ヶ峰",
    "category": "walking",
    "latitude": 35.903562,
    "longitude": 138.9532095,
    "source": "manual",
    "source_url": "https://www.openstreetmap.org/node/2300534133",
    "created_at": "2026-05-26T01:04:19.969Z",
    "updated_at": "2026-05-26T01:04:19.969Z"
  },
  {
    "id": "overpass-0166",
    "name": "大楠山",
    "description": null,
    "category": "walking",
    "latitude": 35.2502062,
    "longitude": 139.6280609,
    "source": "manual",
    "source_url": "https://www.openstreetmap.org/node/2303621064",
    "created_at": "2026-05-26T01:04:19.969Z",
    "updated_at": "2026-05-26T01:04:19.969Z"
  },
  {
    "id": "overpass-0167",
    "name": "富士山",
    "description": null,
    "category": "walking",
    "latitude": 35.2156727,
    "longitude": 139.6686844,
    "source": "manual",
    "source_url": "https://www.openstreetmap.org/node/2303624963",
    "created_at": "2026-05-26T01:04:19.969Z",
    "updated_at": "2026-05-26T01:04:19.969Z"
  },
  {
    "id": "overpass-0168",
    "name": "武山",
    "description": "ja:武山",
    "category": "walking",
    "latitude": 35.2199003,
    "longitude": 139.655789,
    "source": "manual",
    "source_url": "https://www.openstreetmap.org/node/2303624965",
    "created_at": "2026-05-26T01:04:19.969Z",
    "updated_at": "2026-05-26T01:04:19.969Z"
  },
  {
    "id": "overpass-0169",
    "name": "クロスケの家",
    "description": null,
    "category": "meditation",
    "latitude": 35.7912073,
    "longitude": 139.4070947,
    "source": "manual",
    "source_url": "https://www.openstreetmap.org/node/2319161782",
    "created_at": "2026-05-26T01:04:19.969Z",
    "updated_at": "2026-05-26T01:04:19.969Z"
  },
  {
    "id": "overpass-0170",
    "name": "県庁本庁舎(King)屋上展望台",
    "description": null,
    "category": "meditation",
    "latitude": 35.447921,
    "longitude": 139.6429266,
    "source": "manual",
    "source_url": "https://www.openstreetmap.org/node/2319204646",
    "created_at": "2026-05-26T01:04:19.969Z",
    "updated_at": "2026-05-26T01:04:19.969Z"
  },
  {
    "id": "overpass-0171",
    "name": "滝子山",
    "description": "ja:滝子山",
    "category": "walking",
    "latitude": 35.6303537,
    "longitude": 138.8511716,
    "source": "manual",
    "source_url": "https://www.openstreetmap.org/node/2328175902",
    "created_at": "2026-05-26T01:04:19.969Z",
    "updated_at": "2026-05-26T01:04:19.969Z"
  },
  {
    "id": "overpass-0172",
    "name": "三ノ木戸山",
    "description": null,
    "category": "walking",
    "latitude": 35.8129542,
    "longitude": 139.0652207,
    "source": "manual",
    "source_url": "https://www.openstreetmap.org/node/2330522066",
    "created_at": "2026-05-26T01:04:19.969Z",
    "updated_at": "2026-05-26T01:04:19.969Z"
  },
  {
    "id": "overpass-0173",
    "name": "六ツ石山",
    "description": null,
    "category": "walking",
    "latitude": 35.8172691,
    "longitude": 139.046447,
    "source": "manual",
    "source_url": "https://www.openstreetmap.org/node/2330529952",
    "created_at": "2026-05-26T01:04:19.969Z",
    "updated_at": "2026-05-26T01:04:19.969Z"
  },
  {
    "id": "overpass-0174",
    "name": "雷岩",
    "description": null,
    "category": "meditation",
    "latitude": 35.746324,
    "longitude": 138.845532,
    "source": "manual",
    "source_url": "https://www.openstreetmap.org/node/2337748020",
    "created_at": "2026-05-26T01:04:19.969Z",
    "updated_at": "2026-05-26T01:04:19.969Z"
  },
  {
    "id": "overpass-0175",
    "name": "導水管",
    "description": null,
    "category": "meditation",
    "latitude": 35.616625,
    "longitude": 139.612767,
    "source": "manual",
    "source_url": "https://www.openstreetmap.org/node/2355662302",
    "created_at": "2026-05-26T01:04:19.969Z",
    "updated_at": "2026-05-26T01:04:19.969Z"
  },
  {
    "id": "overpass-0176",
    "name": "黒山三滝 男滝・女滝",
    "description": null,
    "category": "meditation",
    "latitude": 35.9411611,
    "longitude": 139.2449193,
    "source": "manual",
    "source_url": "https://www.openstreetmap.org/node/2372853902",
    "created_at": "2026-05-26T01:04:19.969Z",
    "updated_at": "2026-05-26T01:04:19.969Z"
  },
  {
    "id": "overpass-0177",
    "name": "上谷の大クス",
    "description": null,
    "category": "meditation",
    "latitude": 35.98034,
    "longitude": 139.25387,
    "source": "manual",
    "source_url": "https://www.openstreetmap.org/node/2372864280",
    "created_at": "2026-05-26T01:04:19.969Z",
    "updated_at": "2026-05-26T01:04:19.969Z"
  },
  {
    "id": "overpass-0178",
    "name": "寺坂棚田",
    "description": null,
    "category": "meditation",
    "latitude": 35.9904159,
    "longitude": 139.1081667,
    "source": "manual",
    "source_url": "https://www.openstreetmap.org/node/2375871399",
    "created_at": "2026-05-26T01:04:19.969Z",
    "updated_at": "2026-05-26T01:04:19.969Z"
  },
  {
    "id": "overpass-0179",
    "name": "鶏冠山",
    "description": "ja:鶏冠山 (山梨県甲州市)",
    "category": "walking",
    "latitude": 35.7895441,
    "longitude": 138.8393117,
    "source": "manual",
    "source_url": "https://www.openstreetmap.org/node/2383209322",
    "created_at": "2026-05-26T01:04:19.969Z",
    "updated_at": "2026-05-26T01:04:19.969Z"
  },
  {
    "id": "overpass-0180",
    "name": "高取城跡",
    "description": null,
    "category": "meditation",
    "latitude": 35.961499,
    "longitude": 139.2907262,
    "source": "manual",
    "source_url": "https://www.openstreetmap.org/node/2383468588",
    "created_at": "2026-05-26T01:04:19.969Z",
    "updated_at": "2026-05-26T01:04:19.969Z"
  },
  {
    "id": "overpass-0181",
    "name": "草戸山",
    "description": null,
    "category": "walking",
    "latitude": 35.6093062,
    "longitude": 139.268801,
    "source": "manual",
    "source_url": "https://www.openstreetmap.org/node/2385380131",
    "created_at": "2026-05-26T01:04:19.969Z",
    "updated_at": "2026-05-26T01:04:19.969Z"
  },
  {
    "id": "overpass-0182",
    "name": "東京都庁展望室 北",
    "description": null,
    "category": "meditation",
    "latitude": 35.6899139,
    "longitude": 139.6916135,
    "source": "manual",
    "source_url": "https://www.openstreetmap.org/node/2388566136",
    "created_at": "2026-05-26T01:04:19.969Z",
    "updated_at": "2026-05-26T01:04:19.969Z"
  },
  {
    "id": "overpass-0183",
    "name": "東京都庁展望室 南",
    "description": null,
    "category": "meditation",
    "latitude": 35.689088,
    "longitude": 139.6917631,
    "source": "manual",
    "source_url": "https://www.openstreetmap.org/node/2388566137",
    "created_at": "2026-05-26T01:04:19.969Z",
    "updated_at": "2026-05-26T01:04:19.969Z"
  },
  {
    "id": "overpass-0184",
    "name": "天合峰",
    "description": null,
    "category": "walking",
    "latitude": 35.6919843,
    "longitude": 139.2618797,
    "source": "manual",
    "source_url": "https://www.openstreetmap.org/node/2396037082",
    "created_at": "2026-05-26T01:04:19.969Z",
    "updated_at": "2026-05-26T01:04:19.969Z"
  },
  {
    "id": "overpass-0185",
    "name": "雨降山",
    "description": null,
    "category": "walking",
    "latitude": 35.6645683,
    "longitude": 139.0384579,
    "source": "manual",
    "source_url": "https://www.openstreetmap.org/node/2398303490",
    "created_at": "2026-05-26T01:04:19.969Z",
    "updated_at": "2026-05-26T01:04:19.969Z"
  },
  {
    "id": "overpass-0186",
    "name": "北峰",
    "description": null,
    "category": "walking",
    "latitude": 35.674987,
    "longitude": 138.9924929,
    "source": "manual",
    "source_url": "https://www.openstreetmap.org/node/2398314349",
    "created_at": "2026-05-26T01:04:19.969Z",
    "updated_at": "2026-05-26T01:04:19.969Z"
  },
  {
    "id": "overpass-0187",
    "name": "権現山",
    "description": null,
    "category": "walking",
    "latitude": 35.6679011,
    "longitude": 139.0214465,
    "source": "manual",
    "source_url": "https://www.openstreetmap.org/node/2398314351",
    "created_at": "2026-05-26T01:04:19.969Z",
    "updated_at": "2026-05-26T01:04:19.969Z"
  },
  {
    "id": "overpass-0188",
    "name": "麻生山",
    "description": null,
    "category": "walking",
    "latitude": 35.6712134,
    "longitude": 138.9993411,
    "source": "manual",
    "source_url": "https://www.openstreetmap.org/node/2398314352",
    "created_at": "2026-05-26T01:04:19.969Z",
    "updated_at": "2026-05-26T01:04:19.969Z"
  },
  {
    "id": "overpass-0189",
    "name": "大丸",
    "description": null,
    "category": "walking",
    "latitude": 35.5899495,
    "longitude": 139.0772988,
    "source": "manual",
    "source_url": "https://www.openstreetmap.org/node/2402934355",
    "created_at": "2026-05-26T01:04:19.969Z",
    "updated_at": "2026-05-26T01:04:19.969Z"
  },
  {
    "id": "overpass-0190",
    "name": "高柄山",
    "description": null,
    "category": "walking",
    "latitude": 35.5946163,
    "longitude": 139.0890366,
    "source": "manual",
    "source_url": "https://www.openstreetmap.org/node/2402950714",
    "created_at": "2026-05-26T01:04:19.969Z",
    "updated_at": "2026-05-26T01:04:19.969Z"
  },
  {
    "id": "overpass-0191",
    "name": "冠ヶ岳",
    "description": "ja:冠ヶ岳",
    "category": "walking",
    "latitude": 35.2352753,
    "longitude": 139.0205091,
    "source": "manual",
    "source_url": "https://www.openstreetmap.org/node/2406928527",
    "created_at": "2026-05-26T01:04:19.969Z",
    "updated_at": "2026-05-26T01:04:19.969Z"
  },
  {
    "id": "overpass-0192",
    "name": "神山",
    "description": "ja:神山",
    "category": "walking",
    "latitude": 35.2334784,
    "longitude": 139.0209682,
    "source": "manual",
    "source_url": "https://www.openstreetmap.org/node/2407810960",
    "created_at": "2026-05-26T01:04:19.969Z",
    "updated_at": "2026-05-26T01:04:19.969Z"
  },
  {
    "id": "overpass-0193",
    "name": "首都圏4000万人の生活と産業を支える東京港",
    "description": null,
    "category": "meditation",
    "latitude": 35.620496,
    "longitude": 139.769112,
    "source": "manual",
    "source_url": "https://www.openstreetmap.org/node/2410872058",
    "created_at": "2026-05-26T01:04:19.969Z",
    "updated_at": "2026-05-26T01:04:19.969Z"
  },
  {
    "id": "overpass-0194",
    "name": "生藤山",
    "description": "ja:生藤山",
    "category": "walking",
    "latitude": 35.6724211,
    "longitude": 139.132394,
    "source": "manual",
    "source_url": "https://www.openstreetmap.org/node/2417236751",
    "created_at": "2026-05-26T01:04:19.969Z",
    "updated_at": "2026-05-26T01:04:19.969Z"
  },
  {
    "id": "overpass-0195",
    "name": "三国峠",
    "description": "ja:三国峠 (東京都・神奈川県・山梨県)",
    "category": "walking",
    "latitude": 35.6719461,
    "longitude": 139.1309751,
    "source": "manual",
    "source_url": "https://www.openstreetmap.org/node/2417236752",
    "created_at": "2026-05-26T01:04:19.969Z",
    "updated_at": "2026-05-26T01:04:19.969Z"
  },
  {
    "id": "overpass-0196",
    "name": "熊倉山",
    "description": null,
    "category": "walking",
    "latitude": 35.677734,
    "longitude": 139.1242836,
    "source": "manual",
    "source_url": "https://www.openstreetmap.org/node/2417236753",
    "created_at": "2026-05-26T01:04:19.969Z",
    "updated_at": "2026-05-26T01:04:19.969Z"
  },
  {
    "id": "overpass-0197",
    "name": "茅丸",
    "description": null,
    "category": "walking",
    "latitude": 35.6723485,
    "longitude": 139.1365103,
    "source": "manual",
    "source_url": "https://www.openstreetmap.org/node/2417236754",
    "created_at": "2026-05-26T01:04:19.969Z",
    "updated_at": "2026-05-26T01:04:19.969Z"
  },
  {
    "id": "overpass-0198",
    "name": "九鬼山",
    "description": "ja:九鬼山",
    "category": "walking",
    "latitude": 35.5766578,
    "longitude": 138.9510613,
    "source": "manual",
    "source_url": "https://www.openstreetmap.org/node/2422431664",
    "created_at": "2026-05-26T01:04:19.969Z",
    "updated_at": "2026-05-26T01:04:19.969Z"
  },
  {
    "id": "overpass-0199",
    "name": "天狗岩",
    "description": null,
    "category": "meditation",
    "latitude": 35.5762537,
    "longitude": 138.9480011,
    "source": "manual",
    "source_url": "https://www.openstreetmap.org/node/2422438474",
    "created_at": "2026-05-26T01:04:19.969Z",
    "updated_at": "2026-05-26T01:04:19.969Z"
  },
  {
    "id": "overpass-0200",
    "name": "白丸発電所",
    "description": null,
    "category": "meditation",
    "latitude": 35.8113456,
    "longitude": 139.1236587,
    "source": "manual",
    "source_url": "https://www.openstreetmap.org/node/2435296345",
    "created_at": "2026-05-26T01:04:19.969Z",
    "updated_at": "2026-05-26T01:04:19.969Z"
  },
  {
    "id": "overpass-0201",
    "name": "御正体山",
    "description": "ja:御正体山",
    "category": "walking",
    "latitude": 35.486904,
    "longitude": 138.931697,
    "source": "manual",
    "source_url": "https://www.openstreetmap.org/node/2441134639",
    "created_at": "2026-05-26T01:04:19.969Z",
    "updated_at": "2026-05-26T01:04:19.969Z"
  },
  {
    "id": "overpass-0202",
    "name": "救命艇",
    "description": null,
    "category": "meditation",
    "latitude": 35.6192229,
    "longitude": 139.7737283,
    "source": "manual",
    "source_url": "https://www.openstreetmap.org/node/2455022781",
    "created_at": "2026-05-26T01:04:19.969Z",
    "updated_at": "2026-05-26T01:04:19.969Z"
  },
  {
    "id": "overpass-0203",
    "name": "２、３番ハッチ",
    "description": null,
    "category": "meditation",
    "latitude": 35.6191081,
    "longitude": 139.7735413,
    "source": "manual",
    "source_url": "https://www.openstreetmap.org/node/2455026456",
    "created_at": "2026-05-26T01:04:19.969Z",
    "updated_at": "2026-05-26T01:04:19.969Z"
  },
  {
    "id": "overpass-0204",
    "name": "川苔山",
    "description": null,
    "category": "walking",
    "latitude": 35.8508058,
    "longitude": 139.1068845,
    "source": "manual",
    "source_url": "https://www.openstreetmap.org/node/2467223772",
    "created_at": "2026-05-26T01:04:19.969Z",
    "updated_at": "2026-05-26T01:04:19.969Z"
  },
  {
    "id": "overpass-0205",
    "name": "畦ヶ丸山",
    "description": "ja:畦ヶ丸",
    "category": "walking",
    "latitude": 35.4780163,
    "longitude": 139.0321841,
    "source": "manual",
    "source_url": "https://www.openstreetmap.org/node/2467315131",
    "created_at": "2026-05-26T01:04:19.969Z",
    "updated_at": "2026-05-26T01:04:19.969Z"
  },
  {
    "id": "overpass-0206",
    "name": "ゴルフ場どおり",
    "description": null,
    "category": "meditation",
    "latitude": 35.407363,
    "longitude": 138.856516,
    "source": "manual",
    "source_url": "https://www.openstreetmap.org/node/2470714678",
    "created_at": "2026-05-26T01:04:19.969Z",
    "updated_at": "2026-05-26T01:04:19.969Z"
  },
  {
    "id": "overpass-0207",
    "name": "茶屋のだんどうりえ",
    "description": null,
    "category": "meditation",
    "latitude": 35.403992,
    "longitude": 138.851476,
    "source": "manual",
    "source_url": "https://www.openstreetmap.org/node/2470715118",
    "created_at": "2026-05-26T01:04:19.969Z",
    "updated_at": "2026-05-26T01:04:19.969Z"
  },
  {
    "id": "overpass-0208",
    "name": "富士山景観 観測塔",
    "description": null,
    "category": "meditation",
    "latitude": 35.403442,
    "longitude": 138.866952,
    "source": "manual",
    "source_url": "https://www.openstreetmap.org/node/2471656680",
    "created_at": "2026-05-26T01:04:19.969Z",
    "updated_at": "2026-05-26T01:04:19.969Z"
  },
  {
    "id": "overpass-0209",
    "name": "やまと山",
    "description": null,
    "category": "walking",
    "latitude": 35.4372646,
    "longitude": 139.4518288,
    "source": "manual",
    "source_url": "https://www.openstreetmap.org/node/2475364039",
    "created_at": "2026-05-26T01:04:19.969Z",
    "updated_at": "2026-05-26T01:04:19.969Z"
  },
  {
    "id": "overpass-0210",
    "name": "高川山",
    "description": "ja:高川山",
    "category": "walking",
    "latitude": 35.5861399,
    "longitude": 138.9020358,
    "source": "manual",
    "source_url": "https://www.openstreetmap.org/node/2510257735",
    "created_at": "2026-05-26T01:04:19.969Z",
    "updated_at": "2026-05-26T01:04:19.969Z"
  },
  {
    "id": "overpass-0211",
    "name": "三条ダルミ",
    "description": null,
    "category": "meditation",
    "latitude": 35.8522154,
    "longitude": 138.9378448,
    "source": "manual",
    "source_url": "https://www.openstreetmap.org/node/2520910977",
    "created_at": "2026-05-26T01:04:19.969Z",
    "updated_at": "2026-05-26T01:04:19.969Z"
  },
  {
    "id": "overpass-0212",
    "name": "神戸岩",
    "description": null,
    "category": "meditation",
    "latitude": 35.7562768,
    "longitude": 139.114301,
    "source": "manual",
    "source_url": "https://www.openstreetmap.org/node/2530497164",
    "created_at": "2026-05-26T01:04:19.969Z",
    "updated_at": "2026-05-26T01:04:19.969Z"
  },
  {
    "id": "overpass-0213",
    "name": "蕨山",
    "description": null,
    "category": "walking",
    "latitude": 35.8963402,
    "longitude": 139.1319191,
    "source": "manual",
    "source_url": "https://www.openstreetmap.org/node/2548285580",
    "created_at": "2026-05-26T01:04:19.969Z",
    "updated_at": "2026-05-26T01:04:19.969Z"
  },
  {
    "id": "overpass-0214",
    "name": "大ヨケの頭",
    "description": null,
    "category": "walking",
    "latitude": 35.8825135,
    "longitude": 139.1504926,
    "source": "manual",
    "source_url": "https://www.openstreetmap.org/node/2548302990",
    "created_at": "2026-05-26T01:04:19.969Z",
    "updated_at": "2026-05-26T01:04:19.969Z"
  },
  {
    "id": "overpass-0215",
    "name": "藤棚山",
    "description": null,
    "category": "walking",
    "latitude": 35.8914158,
    "longitude": 139.1425691,
    "source": "manual",
    "source_url": "https://www.openstreetmap.org/node/2548302991",
    "created_at": "2026-05-26T01:04:19.969Z",
    "updated_at": "2026-05-26T01:04:19.969Z"
  },
  {
    "id": "overpass-0216",
    "name": "大久保山",
    "description": null,
    "category": "walking",
    "latitude": 35.6359187,
    "longitude": 139.0084811,
    "source": "manual",
    "source_url": "https://www.openstreetmap.org/node/2550178983",
    "created_at": "2026-05-26T01:04:19.969Z",
    "updated_at": "2026-05-26T01:04:19.969Z"
  },
  {
    "id": "overpass-0217",
    "name": "高指山",
    "description": "ja:高指山 (埼玉県)",
    "category": "walking",
    "latitude": 35.8972591,
    "longitude": 139.3004857,
    "source": "manual",
    "source_url": "https://www.openstreetmap.org/node/2559490172",
    "created_at": "2026-05-26T01:04:19.969Z",
    "updated_at": "2026-05-26T01:04:19.969Z"
  },
  {
    "id": "overpass-0218",
    "name": "富士見山",
    "description": null,
    "category": "meditation",
    "latitude": 35.7338666,
    "longitude": 139.746101,
    "source": "manual",
    "source_url": "https://www.openstreetmap.org/node/2560907823",
    "created_at": "2026-05-26T01:04:19.969Z",
    "updated_at": "2026-05-26T01:04:19.969Z"
  },
  {
    "id": "overpass-0219",
    "name": "出汐湊",
    "description": null,
    "category": "meditation",
    "latitude": 35.7328571,
    "longitude": 139.7470752,
    "source": "manual",
    "source_url": "https://www.openstreetmap.org/node/2565864323",
    "created_at": "2026-05-26T01:04:19.969Z",
    "updated_at": "2026-05-26T01:04:19.969Z"
  },
  {
    "id": "overpass-0220",
    "name": "峡谷エリア",
    "description": null,
    "category": "meditation",
    "latitude": 35.4331166,
    "longitude": 138.8436594,
    "source": "manual",
    "source_url": "https://www.openstreetmap.org/node/2577834069",
    "created_at": "2026-05-26T01:04:19.969Z",
    "updated_at": "2026-05-26T01:04:19.969Z"
  },
  {
    "id": "overpass-0221",
    "name": "鎌倉往還の旧道跡",
    "description": null,
    "category": "meditation",
    "latitude": 35.4325609,
    "longitude": 138.8426829,
    "source": "manual",
    "source_url": "https://www.openstreetmap.org/node/2577837262",
    "created_at": "2026-05-26T01:04:19.969Z",
    "updated_at": "2026-05-26T01:04:19.969Z"
  },
  {
    "id": "overpass-0222",
    "name": "薬師林道展望台",
    "description": null,
    "category": "meditation",
    "latitude": 35.4438508,
    "longitude": 139.2837158,
    "source": "manual",
    "source_url": "https://www.openstreetmap.org/node/2604197602",
    "created_at": "2026-05-26T01:04:19.969Z",
    "updated_at": "2026-05-26T01:04:19.969Z",
    "tags": [
      "shade"
    ]
  },
  {
    "id": "overpass-0223",
    "name": "天神平",
    "description": null,
    "category": "meditation",
    "latitude": 35.4405958,
    "longitude": 139.2713045,
    "source": "manual",
    "source_url": "https://www.openstreetmap.org/node/2604389803",
    "created_at": "2026-05-26T01:04:19.969Z",
    "updated_at": "2026-05-26T01:04:19.969Z"
  },
  {
    "id": "overpass-0224",
    "name": "天神尾根",
    "description": null,
    "category": "walking",
    "latitude": 35.438967,
    "longitude": 139.270932,
    "source": "manual",
    "source_url": "https://www.openstreetmap.org/node/2604389864",
    "created_at": "2026-05-26T01:04:19.969Z",
    "updated_at": "2026-05-26T01:04:19.969Z"
  },
  {
    "id": "overpass-0225",
    "name": "白山",
    "description": null,
    "category": "walking",
    "latitude": 35.4716553,
    "longitude": 139.2985297,
    "source": "manual",
    "source_url": "https://www.openstreetmap.org/node/2610883695",
    "created_at": "2026-05-26T01:04:19.969Z",
    "updated_at": "2026-05-26T01:04:19.969Z"
  },
  {
    "id": "overpass-0226",
    "name": "白山展望台",
    "description": null,
    "category": "meditation",
    "latitude": 35.4716156,
    "longitude": 139.298589,
    "source": "manual",
    "source_url": "https://www.openstreetmap.org/node/2610883699",
    "created_at": "2026-05-26T01:04:19.969Z",
    "updated_at": "2026-05-26T01:04:19.969Z"
  },
  {
    "id": "overpass-0227",
    "name": "日向山",
    "description": null,
    "category": "walking",
    "latitude": 35.4428588,
    "longitude": 139.2773098,
    "source": "manual",
    "source_url": "https://www.openstreetmap.org/node/2618245018",
    "created_at": "2026-05-26T01:04:19.969Z",
    "updated_at": "2026-05-26T01:04:19.969Z"
  },
  {
    "id": "overpass-0228",
    "name": "今熊山",
    "description": null,
    "category": "walking",
    "latitude": 35.7104788,
    "longitude": 139.2157796,
    "source": "manual",
    "source_url": "https://www.openstreetmap.org/node/2623690809",
    "created_at": "2026-05-26T01:04:19.969Z",
    "updated_at": "2026-05-26T01:04:19.969Z"
  },
  {
    "id": "overpass-0229",
    "name": "イヨ山",
    "description": null,
    "category": "walking",
    "latitude": 35.7643879,
    "longitude": 139.0117603,
    "source": "manual",
    "source_url": "https://www.openstreetmap.org/node/2629971581",
    "created_at": "2026-05-26T01:04:19.969Z",
    "updated_at": "2026-05-26T01:04:19.969Z"
  },
  {
    "id": "overpass-0230",
    "name": "展望台",
    "description": null,
    "category": "meditation",
    "latitude": 35.7384009,
    "longitude": 139.0143002,
    "source": "manual",
    "source_url": "https://www.openstreetmap.org/node/2630000383",
    "created_at": "2026-05-26T01:04:19.969Z",
    "updated_at": "2026-05-26T01:04:19.969Z"
  },
  {
    "id": "overpass-0231",
    "name": "槙寄山",
    "description": null,
    "category": "walking",
    "latitude": 35.7164569,
    "longitude": 139.0299872,
    "source": "manual",
    "source_url": "https://www.openstreetmap.org/node/2631261719",
    "created_at": "2026-05-26T01:04:19.969Z",
    "updated_at": "2026-05-26T01:04:19.969Z"
  },
  {
    "id": "overpass-0232",
    "name": "仏果山山頂展望台",
    "description": null,
    "category": "meditation",
    "latitude": 35.5207368,
    "longitude": 139.2581462,
    "source": "manual",
    "source_url": "https://www.openstreetmap.org/node/2646667707",
    "created_at": "2026-05-26T01:04:19.969Z",
    "updated_at": "2026-05-26T01:04:19.969Z"
  },
  {
    "id": "overpass-0233",
    "name": "革籠石山",
    "description": "ja:革籠石山",
    "category": "walking",
    "latitude": 35.5135363,
    "longitude": 139.2643977,
    "source": "manual",
    "source_url": "https://www.openstreetmap.org/node/2646667714",
    "created_at": "2026-05-26T01:04:19.969Z",
    "updated_at": "2026-05-26T01:04:19.969Z"
  },
  {
    "id": "overpass-0234",
    "name": "経ヶ岳",
    "description": null,
    "category": "walking",
    "latitude": 35.5072105,
    "longitude": 139.2752022,
    "source": "manual",
    "source_url": "https://www.openstreetmap.org/node/2646958141",
    "created_at": "2026-05-26T01:04:19.969Z",
    "updated_at": "2026-05-26T01:04:19.969Z"
  },
  {
    "id": "overpass-0235",
    "name": "越上山",
    "description": null,
    "category": "walking",
    "latitude": 35.9250804,
    "longitude": 139.2543039,
    "source": "manual",
    "source_url": "https://www.openstreetmap.org/node/2723328349",
    "created_at": "2026-05-26T01:04:19.969Z",
    "updated_at": "2026-05-26T01:04:19.969Z"
  },
  {
    "id": "overpass-0236",
    "name": "武甲山",
    "description": "ja:武甲山",
    "category": "walking",
    "latitude": 35.9516121,
    "longitude": 139.0977764,
    "source": "manual",
    "source_url": "https://www.openstreetmap.org/node/2723347374",
    "created_at": "2026-05-26T01:04:19.969Z",
    "updated_at": "2026-05-26T01:04:19.969Z"
  },
  {
    "id": "overpass-0237",
    "name": "小持山",
    "description": null,
    "category": "walking",
    "latitude": 35.9353321,
    "longitude": 139.0957684,
    "source": "manual",
    "source_url": "https://www.openstreetmap.org/node/2723350699",
    "created_at": "2026-05-26T01:04:19.969Z",
    "updated_at": "2026-05-26T01:04:19.969Z"
  },
  {
    "id": "overpass-0238",
    "name": "大持山",
    "description": "ja:大持山",
    "category": "walking",
    "latitude": 35.9285241,
    "longitude": 139.1005499,
    "source": "manual",
    "source_url": "https://www.openstreetmap.org/node/2725101434",
    "created_at": "2026-05-26T01:04:19.969Z",
    "updated_at": "2026-05-26T01:04:19.969Z"
  },
  {
    "id": "overpass-0239",
    "name": "有間山 タタラノ頭",
    "description": null,
    "category": "walking",
    "latitude": 35.8866368,
    "longitude": 139.1159783,
    "source": "manual",
    "source_url": "https://www.openstreetmap.org/node/2725107013",
    "created_at": "2026-05-26T01:04:19.969Z",
    "updated_at": "2026-05-26T01:04:19.969Z"
  },
  {
    "id": "overpass-0240",
    "name": "武川岳",
    "description": "ja:武川岳",
    "category": "walking",
    "latitude": 35.9369418,
    "longitude": 139.1303228,
    "source": "manual",
    "source_url": "https://www.openstreetmap.org/node/2725111829",
    "created_at": "2026-05-26T01:04:19.969Z",
    "updated_at": "2026-05-26T01:04:19.969Z"
  },
  {
    "id": "overpass-0241",
    "name": "焼山",
    "description": null,
    "category": "walking",
    "latitude": 35.9539463,
    "longitude": 139.1296146,
    "source": "manual",
    "source_url": "https://www.openstreetmap.org/node/2725114736",
    "created_at": "2026-05-26T01:04:19.969Z",
    "updated_at": "2026-05-26T01:04:19.969Z"
  },
  {
    "id": "overpass-0242",
    "name": "二子山",
    "description": null,
    "category": "walking",
    "latitude": 35.9618904,
    "longitude": 139.1380144,
    "source": "manual",
    "source_url": "https://www.openstreetmap.org/node/2725119017",
    "created_at": "2026-05-26T01:04:19.969Z",
    "updated_at": "2026-05-26T01:04:19.969Z"
  },
  {
    "id": "overpass-0243",
    "name": "富士山",
    "description": null,
    "category": "walking",
    "latitude": 35.9107161,
    "longitude": 139.3132148,
    "source": "manual",
    "source_url": "https://www.openstreetmap.org/node/2725131735",
    "created_at": "2026-05-26T01:04:19.969Z",
    "updated_at": "2026-05-26T01:04:19.969Z"
  },
  {
    "id": "overpass-0244",
    "name": "鷹巣山",
    "description": "ja:鷹ノ巣山 (東京都)",
    "category": "walking",
    "latitude": 35.8298911,
    "longitude": 139.0123221,
    "source": "manual",
    "source_url": "https://www.openstreetmap.org/node/2725165859",
    "created_at": "2026-05-26T01:04:19.969Z",
    "updated_at": "2026-05-26T01:04:19.969Z"
  },
  {
    "id": "overpass-0245",
    "name": "スカリ山",
    "description": null,
    "category": "walking",
    "latitude": 35.9116548,
    "longitude": 139.2763878,
    "source": "manual",
    "source_url": "https://www.openstreetmap.org/node/2725172012",
    "created_at": "2026-05-26T01:04:19.969Z",
    "updated_at": "2026-05-26T01:04:19.969Z"
  },
  {
    "id": "overpass-0246",
    "name": "寄神社",
    "description": null,
    "category": "meditation",
    "latitude": 35.3971771,
    "longitude": 139.1392306,
    "source": "manual",
    "source_url": "https://www.openstreetmap.org/node/2749247357",
    "created_at": "2026-05-26T01:04:19.969Z",
    "updated_at": "2026-05-26T01:04:19.969Z"
  },
  {
    "id": "overpass-0247",
    "name": "芋堀ドッケン",
    "description": null,
    "category": "walking",
    "latitude": 35.980507,
    "longitude": 138.866102,
    "source": "manual",
    "source_url": "https://www.openstreetmap.org/node/2766015325",
    "created_at": "2026-05-26T01:04:19.969Z",
    "updated_at": "2026-05-26T01:04:19.969Z"
  },
  {
    "id": "overpass-0248",
    "name": "丸山",
    "description": null,
    "category": "walking",
    "latitude": 35.9886136,
    "longitude": 139.1596292,
    "source": "manual",
    "source_url": "https://www.openstreetmap.org/node/2794309250",
    "created_at": "2026-05-26T01:04:19.969Z",
    "updated_at": "2026-05-26T01:04:19.969Z"
  },
  {
    "id": "overpass-0249",
    "name": "小河内ダム展望塔",
    "description": null,
    "category": "meditation",
    "latitude": 35.790062,
    "longitude": 139.0512235,
    "source": "manual",
    "source_url": "https://www.openstreetmap.org/node/2838920901",
    "created_at": "2026-05-26T01:04:19.969Z",
    "updated_at": "2026-05-26T01:04:19.969Z"
  },
  {
    "id": "overpass-0250",
    "name": "東岳",
    "description": null,
    "category": "walking",
    "latitude": 36.0674107,
    "longitude": 138.8695376,
    "source": "manual",
    "source_url": "https://www.openstreetmap.org/node/2865688184",
    "created_at": "2026-05-26T01:04:19.969Z",
    "updated_at": "2026-05-26T01:04:19.969Z"
  },
  {
    "id": "overpass-0251",
    "name": "今倉山・東峰",
    "description": null,
    "category": "walking",
    "latitude": 35.5213158,
    "longitude": 138.9743935,
    "source": "manual",
    "source_url": "https://www.openstreetmap.org/node/2865710003",
    "created_at": "2026-05-26T01:04:19.969Z",
    "updated_at": "2026-05-26T01:04:19.969Z"
  },
  {
    "id": "overpass-0252",
    "name": "今倉山・西峰",
    "description": null,
    "category": "walking",
    "latitude": 35.5222544,
    "longitude": 138.9686913,
    "source": "manual",
    "source_url": "https://www.openstreetmap.org/node/2865733146",
    "created_at": "2026-05-26T01:04:19.969Z",
    "updated_at": "2026-05-26T01:04:19.969Z"
  },
  {
    "id": "overpass-0253",
    "name": "松山（赤岩）",
    "description": null,
    "category": "walking",
    "latitude": 35.5220579,
    "longitude": 138.9628357,
    "source": "manual",
    "source_url": "https://www.openstreetmap.org/node/2865733147",
    "created_at": "2026-05-26T01:04:19.970Z",
    "updated_at": "2026-05-26T01:04:19.970Z"
  },
  {
    "id": "overpass-0254",
    "name": "二十六夜山",
    "description": null,
    "category": "walking",
    "latitude": 35.5276294,
    "longitude": 138.9468457,
    "source": "manual",
    "source_url": "https://www.openstreetmap.org/node/2865738610",
    "created_at": "2026-05-26T01:04:19.970Z",
    "updated_at": "2026-05-26T01:04:19.970Z"
  },
  {
    "id": "overpass-0255",
    "name": "ななさわの丘",
    "description": null,
    "category": "meditation",
    "latitude": 35.4491045,
    "longitude": 139.2998438,
    "source": "manual",
    "source_url": "https://www.openstreetmap.org/node/2865743808",
    "created_at": "2026-05-26T01:04:19.970Z",
    "updated_at": "2026-05-26T01:04:19.970Z"
  },
  {
    "id": "overpass-0256",
    "name": "ながめの丘",
    "description": null,
    "category": "meditation",
    "latitude": 35.452613,
    "longitude": 139.3016279,
    "source": "manual",
    "source_url": "https://www.openstreetmap.org/node/2865894776",
    "created_at": "2026-05-26T01:04:19.970Z",
    "updated_at": "2026-05-26T01:04:19.970Z"
  },
  {
    "id": "overpass-0257",
    "name": "もみじ展望台",
    "description": null,
    "category": "meditation",
    "latitude": 35.4498893,
    "longitude": 139.3019152,
    "source": "manual",
    "source_url": "https://www.openstreetmap.org/node/2865894777",
    "created_at": "2026-05-26T01:04:19.970Z",
    "updated_at": "2026-05-26T01:04:19.970Z",
    "tags": [
      "autumn_leaves"
    ]
  },
  {
    "id": "overpass-0258",
    "name": "富士見山",
    "description": null,
    "category": "meditation",
    "latitude": 35.6575899,
    "longitude": 139.7626023,
    "source": "manual",
    "source_url": "https://www.openstreetmap.org/node/2866251362",
    "created_at": "2026-05-26T01:04:19.970Z",
    "updated_at": "2026-05-26T01:04:19.970Z"
  },
  {
    "id": "overpass-0259",
    "name": "吉田山",
    "description": null,
    "category": "walking",
    "latitude": 35.914862,
    "longitude": 139.206896,
    "source": "manual",
    "source_url": "https://www.openstreetmap.org/node/2879818168",
    "created_at": "2026-05-26T01:04:19.970Z",
    "updated_at": "2026-05-26T01:04:19.970Z"
  },
  {
    "id": "overpass-0260",
    "name": "大平山",
    "description": null,
    "category": "walking",
    "latitude": 36.0358867,
    "longitude": 139.305793,
    "source": "manual",
    "source_url": "https://www.openstreetmap.org/node/2879896860",
    "created_at": "2026-05-26T01:04:19.970Z",
    "updated_at": "2026-05-26T01:04:19.970Z"
  },
  {
    "id": "overpass-0261",
    "name": "雁ヶ腹摺山",
    "description": "ja:雁ヶ腹摺山",
    "category": "walking",
    "latitude": 35.6867905,
    "longitude": 138.8848056,
    "source": "manual",
    "source_url": "https://www.openstreetmap.org/node/2888994174",
    "created_at": "2026-05-26T01:04:19.970Z",
    "updated_at": "2026-05-26T01:04:19.970Z"
  },
  {
    "id": "overpass-0262",
    "name": "御岳山",
    "description": "en:Mount Mitake (Tokyo)",
    "category": "walking",
    "latitude": 35.7828135,
    "longitude": 139.1494853,
    "source": "manual",
    "source_url": "https://www.openstreetmap.org/node/2906613942",
    "created_at": "2026-05-26T01:04:19.970Z",
    "updated_at": "2026-05-26T01:04:19.970Z"
  },
  {
    "id": "overpass-0263",
    "name": "高座山",
    "description": null,
    "category": "walking",
    "latitude": 35.4756196,
    "longitude": 138.8545783,
    "source": "manual",
    "source_url": "https://www.openstreetmap.org/node/2916971624",
    "created_at": "2026-05-26T01:04:19.970Z",
    "updated_at": "2026-05-26T01:04:19.970Z"
  },
  {
    "id": "overpass-0264",
    "name": "杓子山",
    "description": "ja:杓子山",
    "category": "walking",
    "latitude": 35.4852127,
    "longitude": 138.8662096,
    "source": "manual",
    "source_url": "https://www.openstreetmap.org/node/2916973712",
    "created_at": "2026-05-26T01:04:19.970Z",
    "updated_at": "2026-05-26T01:04:19.970Z"
  },
  {
    "id": "overpass-0265",
    "name": "展望台",
    "description": null,
    "category": "meditation",
    "latitude": 35.0989197,
    "longitude": 139.8809838,
    "source": "manual",
    "source_url": "https://www.openstreetmap.org/node/2936278328",
    "created_at": "2026-05-26T01:04:19.970Z",
    "updated_at": "2026-05-26T01:04:19.970Z"
  },
  {
    "id": "overpass-0266",
    "name": "富山",
    "description": "ja:富山 (千葉県)",
    "category": "walking",
    "latitude": 35.0986879,
    "longitude": 139.8816004,
    "source": "manual",
    "source_url": "https://www.openstreetmap.org/node/2936278337",
    "created_at": "2026-05-26T01:04:19.970Z",
    "updated_at": "2026-05-26T01:04:19.970Z"
  },
  {
    "id": "overpass-0267",
    "name": "網代城山",
    "description": null,
    "category": "walking",
    "latitude": 35.7206011,
    "longitude": 139.2425768,
    "source": "manual",
    "source_url": "https://www.openstreetmap.org/node/2973419194",
    "created_at": "2026-05-26T01:04:19.970Z",
    "updated_at": "2026-05-26T01:04:19.970Z"
  },
  {
    "id": "overpass-0268",
    "name": "網代弁天山",
    "description": null,
    "category": "walking",
    "latitude": 35.7205816,
    "longitude": 139.246901,
    "source": "manual",
    "source_url": "https://www.openstreetmap.org/node/2973434379",
    "created_at": "2026-05-26T01:04:19.970Z",
    "updated_at": "2026-05-26T01:04:19.970Z"
  },
  {
    "id": "overpass-0269",
    "name": "荒川ロックゲート",
    "description": null,
    "category": "meditation",
    "latitude": 35.6829903,
    "longitude": 139.8473867,
    "source": "manual",
    "source_url": "https://www.openstreetmap.org/node/3004012451",
    "created_at": "2026-05-26T01:04:19.970Z",
    "updated_at": "2026-05-26T01:04:19.970Z"
  },
  {
    "id": "overpass-0270",
    "name": "Overlook",
    "description": null,
    "category": "meditation",
    "latitude": 35.198216,
    "longitude": 139.026408,
    "source": "manual",
    "source_url": "https://www.openstreetmap.org/node/3028828138",
    "created_at": "2026-05-26T01:04:19.970Z",
    "updated_at": "2026-05-26T01:04:19.970Z"
  },
  {
    "id": "overpass-0271",
    "name": "長岳",
    "description": null,
    "category": "walking",
    "latitude": 35.7287613,
    "longitude": 139.1812287,
    "source": "manual",
    "source_url": "https://www.openstreetmap.org/node/3041961285",
    "created_at": "2026-05-26T01:04:19.970Z",
    "updated_at": "2026-05-26T01:04:19.970Z"
  },
  {
    "id": "overpass-0272",
    "name": "高丸山",
    "description": null,
    "category": "walking",
    "latitude": 35.6878708,
    "longitude": 139.2721389,
    "source": "manual",
    "source_url": "https://www.openstreetmap.org/node/3057688450",
    "created_at": "2026-05-26T01:04:19.970Z",
    "updated_at": "2026-05-26T01:04:19.970Z"
  },
  {
    "id": "overpass-0273",
    "name": "雹留山",
    "description": null,
    "category": "walking",
    "latitude": 35.7102993,
    "longitude": 139.2608892,
    "source": "manual",
    "source_url": "https://www.openstreetmap.org/node/3064634874",
    "created_at": "2026-05-26T01:04:19.970Z",
    "updated_at": "2026-05-26T01:04:19.970Z"
  },
  {
    "id": "overpass-0274",
    "name": "皆城山展望台",
    "description": null,
    "category": "meditation",
    "latitude": 35.3483069,
    "longitude": 139.5661552,
    "source": "manual",
    "source_url": "https://www.openstreetmap.org/node/3076416568",
    "created_at": "2026-05-26T01:04:19.970Z",
    "updated_at": "2026-05-26T01:04:19.970Z"
  },
  {
    "id": "overpass-0275",
    "name": "伊豆ヶ岳",
    "description": "ja:伊豆ヶ岳",
    "category": "walking",
    "latitude": 35.926941,
    "longitude": 139.160641,
    "source": "manual",
    "source_url": "https://www.openstreetmap.org/node/3076426421",
    "created_at": "2026-05-26T01:04:19.970Z",
    "updated_at": "2026-05-26T01:04:19.970Z"
  },
  {
    "id": "overpass-0276",
    "name": "日向峯",
    "description": null,
    "category": "walking",
    "latitude": 35.7226253,
    "longitude": 139.2129041,
    "source": "manual",
    "source_url": "https://www.openstreetmap.org/node/3076766883",
    "created_at": "2026-05-26T01:04:19.970Z",
    "updated_at": "2026-05-26T01:04:19.970Z"
  },
  {
    "id": "overpass-0277",
    "name": "中ノ沢ノ頭",
    "description": null,
    "category": "walking",
    "latitude": 35.9102282,
    "longitude": 139.1683639,
    "source": "manual",
    "source_url": "https://www.openstreetmap.org/node/3085981689",
    "created_at": "2026-05-26T01:04:19.970Z",
    "updated_at": "2026-05-26T01:04:19.970Z"
  },
  {
    "id": "overpass-0278",
    "name": "高畑山",
    "description": null,
    "category": "walking",
    "latitude": 35.9148381,
    "longitude": 139.1621969,
    "source": "manual",
    "source_url": "https://www.openstreetmap.org/node/3085981742",
    "created_at": "2026-05-26T01:04:19.970Z",
    "updated_at": "2026-05-26T01:04:19.970Z"
  },
  {
    "id": "overpass-0279",
    "name": "古御岳",
    "description": null,
    "category": "walking",
    "latitude": 35.9228968,
    "longitude": 139.1597454,
    "source": "manual",
    "source_url": "https://www.openstreetmap.org/node/3085981756",
    "created_at": "2026-05-26T01:04:19.970Z",
    "updated_at": "2026-05-26T01:04:19.970Z"
  },
  {
    "id": "overpass-0280",
    "name": "五輪山",
    "description": null,
    "category": "walking",
    "latitude": 35.9298099,
    "longitude": 139.1605254,
    "source": "manual",
    "source_url": "https://www.openstreetmap.org/node/3088365270",
    "created_at": "2026-05-26T01:04:19.970Z",
    "updated_at": "2026-05-26T01:04:19.970Z"
  },
  {
    "id": "overpass-0281",
    "name": "大六天",
    "description": null,
    "category": "walking",
    "latitude": 35.6633854,
    "longitude": 139.2575357,
    "source": "manual",
    "source_url": "https://www.openstreetmap.org/node/3094244335",
    "created_at": "2026-05-26T01:04:19.970Z",
    "updated_at": "2026-05-26T01:04:19.970Z"
  },
  {
    "id": "overpass-0282",
    "name": "向山砦",
    "description": null,
    "category": "meditation",
    "latitude": 35.6653306,
    "longitude": 139.2568603,
    "source": "manual",
    "source_url": "https://www.openstreetmap.org/node/3094244461",
    "created_at": "2026-05-26T01:04:19.970Z",
    "updated_at": "2026-05-26T01:04:19.970Z"
  },
  {
    "id": "overpass-0283",
    "name": "癒しの穴",
    "description": null,
    "category": "meditation",
    "latitude": 35.402401,
    "longitude": 138.866918,
    "source": "manual",
    "source_url": "https://www.openstreetmap.org/node/3101292030",
    "created_at": "2026-05-26T01:04:19.970Z",
    "updated_at": "2026-05-26T01:04:19.970Z"
  },
  {
    "id": "overpass-0284",
    "name": "八王子城山",
    "description": null,
    "category": "walking",
    "latitude": 35.6530059,
    "longitude": 139.2521649,
    "source": "manual",
    "source_url": "https://www.openstreetmap.org/node/3105252349",
    "created_at": "2026-05-26T01:04:19.970Z",
    "updated_at": "2026-05-26T01:04:19.970Z"
  },